INSTNM,CITY,STABBR,ZIP,INSTURL,LATITUDE,LONGITUDE,ADM_RATE,SAT_AVG_ALL
Alabama A & M University,Normal,AL,35762,www.aamu.edu/,34.783368,-86.568502,0.6538,850
University of Alabama at Birmingham,Birmingham,AL,35294-0110,www.uab.edu,33.50223,-86.80917,0.6043,1147
Amridge University,Montgomery,AL,36117-3553,www.amridgeuniversity.edu,32.362609,-86.17401,NULL,NULL
University of Alabama in Huntsville,Huntsville,AL,35899,www.uah.edu,34.722818,-86.63842,0.812,1221
Alabama State University,Montgomery,AL,36104-0271,www.alasu.edu,32.364317,-86.295677,0.4639,844
The University of Alabama,Tuscaloosa,AL,35487-0166,www.ua.edu/,33.2144,-87.545766,0.5359,1181
Central Alabama Community College,Alexander City,AL,35010,www.cacc.edu,32.924429,-85.94653,NULL,NULL
Athens State University,Athens,AL,35611,www.athens.edu,34.805625,-86.96514,NULL,NULL
Auburn University at Montgomery,Montgomery,AL,36117-3596,www.aum.edu,32.369939,-86.177351,0.7871,990
Auburn University,Auburn,AL,36849,www.auburn.edu,32.604685,-85.482782,0.7766,1218
Birmingham Southern College,Birmingham,AL,35254,www.bsc.edu/,33.515453,-86.853636,0.5306,1167
Chattahoochee Valley Community College,Phenix City,AL,36869,www.cv.edu,32.42391,-85.031485,NULL,NULL
Concordia College Alabama,Selma,AL,36701,www.ccal.edu/,32.42443,-87.023531,0.4034,NULL
South University-Montgomery,Montgomery,AL,36116,"www.southuniversity.edu/montgomery#location=Montgomery,%20AL",32.342684,-86.216488,NULL,NULL
Enterprise State Community College,Enterprise,AL,36330-1300,www.escc.edu,31.297496,-85.836956,NULL,NULL
James H Faulkner State Community College,Bay Minette,AL,36507-2698,www.faulknerstate.edu,30.852045,-87.779758,NULL,NULL
Faulkner University,Montgomery,AL,36109-3390,www.faulkner.edu,32.384181,-86.21641,0.573,985
Gadsden State Community College,Gadsden,AL,35903,www.gadsdenstate.edu,33.991866,-85.991299,NULL,NULL
New Beginning College of Cosmetology,Albertville,AL,35951,www.nbccosmetology.com,34.27871,-86.196931,NULL,NULL
George C Wallace State Community College-Dothan,Dothan,AL,36303-9234,www.wallace.edu,31.316086,-85.46355,NULL,NULL
George C Wallace State Community College-Hanceville,Hanceville,AL,35077-2000,www.wallacestate.edu,34.07341,-86.781745,NULL,NULL
George C Wallace State Community College-Selma,Selma,AL,36703-2808,www.wccs.edu,32.445611,-87.01324,NULL,NULL
Herzing University-Birmingham,Birmingham,AL,35209,www.herzing.edu/,33.468105,-86.832299,0.9541,NULL
Huntingdon College,Montgomery,AL,36106-2148,www.huntingdon.edu,32.350939,-86.285313,0.5769,992
Heritage Christian University,Florence,AL,35630-9977,www.hcu.edu,34.859089,-87.662062,0.7,848
J F Drake State Community and Technical College,Huntsville,AL,35811,www.drakestate.edu,34.772116,-86.573817,NULL,NULL
Jacksonville State University,Jacksonville,AL,36265,www.jsu.edu/,33.822128,-85.766644,0.6665,1062
Jefferson Davis Community College,Brewton,AL,36426,www.jdcc.edu,31.101995,-87.085829,NULL,NULL
Jefferson State Community College,Birmingham,AL,35215-3098,www.jeffstateonline.com,33.652439,-86.707387,NULL,NULL
John C Calhoun State Community College,Tanner,AL,35671,www.calhoun.edu,34.65428,-86.949131,NULL,NULL
Judson College,Marion,AL,36756,www.judson.edu,32.630526,-87.316127,0.6292,1031
Lawson State Community College-Birmingham Campus,Birmingham,AL,35221-1717,www.lawsonstate.edu,33.451673,-86.890234,NULL,NULL
University of West Alabama,Livingston,AL,35470,www.uwa.edu,32.59244,-88.186077,0.7347,930
Lurleen B Wallace Community College,Andalusia,AL,36420-1418,www.lbwcc.edu,31.322947,-86.452262,NULL,NULL
Marion Military Institute,Marion,AL,36756-3207,www.marionmilitary.edu,32.622359,-87.317998,0.5918,1061
Miles College,Fairfield,AL,35064-2621,www.miles.edu,33.481306,-86.908605,NULL,NULL
University of Mobile,Mobile,AL,36613-2842,www.umobile.edu,30.793247,-88.128934,0.6051,1025
University of Montevallo,Montevallo,AL,35115-6000,www.montevallo.edu,33.10625,-86.865099,0.7001,1069
Northwest-Shoals Community College,Muscle Shoals,AL,35661,www.nwscc.edu,34.739567,-87.67733,NULL,NULL
University of North Alabama,Florence,AL,35632-0001,www.una.edu,34.80658,-87.680999,0.58,1027
Northeast Alabama Community College,Rainsville,AL,35986,www.nacc.edu,34.545471,-85.911664,NULL,NULL
Oakwood University,Huntsville,AL,35896,www.oakwood.edu,34.756628,-86.661628,0.4749,923
Alabama Southern Community College,Monroeville,AL,36460,www.ascc.edu,31.488925,-87.326352,NULL,NULL
Prince Institute-Southeast,Elmhurst,IL,60126,princeinstitute.edu,41.928952,-87.962922,NULL,NULL
Reid State Technical College,Evergreen,AL,36401,www.rstc.edu,31.46071,-86.964486,NULL,NULL
Bishop State Community College,Mobile,AL,36603-5898,www.bishop.edu,30.693972,-88.056982,NULL,NULL
Samford University,Birmingham,AL,35229-2240,www.samford.edu,33.464578,-86.790932,0.933,1162
Selma University,Selma,AL,36701,selmauniversity.edu,32.420358,-87.033826,NULL,NULL
Shelton State Community College,Tuscaloosa,AL,35405-8522,www.sheltonstate.edu,33.120531,-87.56148,NULL,NULL
Snead State Community College,Boaz,AL,35957-0734,www.snead.edu,34.201247,-86.169479,NULL,NULL
University of South Alabama,Mobile,AL,36688-0002,www.southalabama.edu,30.695081,-88.18189,0.7816,1045
Spring Hill College,Mobile,AL,36608-1791,www.shc.edu,30.694751,-88.138199,0.4132,1120
Southeastern Bible College,Birmingham,AL,35244-2083,sebc.edu/,33.378935,-86.749045,1,1045
Stillman College,Tuscaloosa,AL,35401,www.stillman.edu,33.199228,-87.585242,0.5659,831
Talladega College,Talladega,AL,35160,www.talladega.edu,33.434258,-86.113675,NULL,NULL
H Councill Trenholm State Community College,Montgomery,AL,36108-3199,www.trenholmstate.edu,32.350109,-86.343057,NULL,NULL
Troy University,Troy,AL,36082-0001,www.troy.edu,31.800128,-85.950191,0.9187,1046
Tuskegee University,Tuskegee,AL,36088-1920,www.tuskegee.edu,32.431021,-85.710315,0.5296,955
United States Sports Academy,Daphne,AL,36526-7055,www.ussa.edu,30.639329,-87.91163,NULL,NULL
Bevill State Community College,Jasper,AL,35501,www.bscc.edu,33.835785,-87.265034,NULL,NULL
University of Alaska Anchorage,Anchorage,AK,99508,www.uaa.alaska.edu,61.189554,-149.826135,0.706,NULL
Alaska Bible College,Palmer,AK,99645,www.akbible.edu/,61.59843,-149.111341,NULL,NULL
University of Alaska Fairbanks,Fairbanks,AK,99775-7500,www.uaf.edu,64.856483,-147.822943,0.731,1058
University of Alaska Southeast,Juneau,AK,99801-8697,www.uas.alaska.edu,58.38427,-134.636346,0.4891,NULL
Alaska Pacific University,Anchorage,AK,99508,www.alaskapacific.edu,61.191235,-149.804242,0.3891,985
AVTEC-Alaska's Institute of Technology,Seward,AK,99664-0889,www.avtec.edu/,60.110727,-149.444573,NULL,NULL
Charter College,Vancouver,WA,98683-7575,www.chartercollege.edu,61.195786,-149.840178,NULL,NULL
Alaska Career College,Anchorage,AK,99507-1033,www.alaskacareercollege.edu,61.181443,-149.856954,NULL,NULL
Empire Beauty School-Tucson,Tucson,AZ,85716,www.empire.edu,32.235657,-110.927187,NULL,NULL
Thunderbird School of Global Management,Glendale,AZ,85306-6000,https://thunderbird.asu.edu/about/,33.620887,-112.180861,NULL,1143
American Indian College Inc,Phoenix,AZ,85021,www.aicag.edu/,33.577738,-112.092247,NULL,NULL
American Institute of Trucking,Phoenix,AZ,85043-4729,www.ait-schools.com,33.442262,-112.175304,NULL,NULL
Carrington College-Phoenix North,Phoenix,AZ,85051-4063,www.carrington.edu,33.560821,-112.115546,0.9837,NULL
Carrington College-Mesa,Mesa,AZ,85210,www.carrington.edu,33.39207,-111.855281,0.9861,NULL
Carrington College-Tucson,Tucson,AZ,85745,www.carrington.edu,32.224,-110.982961,0.9774,NULL
CollegeAmerica-Flagstaff,Flagstaff,AZ,86001,www.collegeamerica.edu,35.194607,-111.65739,NULL,NULL
Arizona Academy of Beauty-East,Tucson,AZ,85712,www.arizonaacademy.com,32.237253,-110.872305,NULL,NULL
Arizona Automotive Institute,Glendale,AZ,85301-3579,www.aai.edu,33.537249,-112.157344,NULL,NULL
Brookline College-Phoenix,Phoenix,AZ,85021,www.brooklinecollege.edu,33.525384,-112.15007,NULL,NULL
Arizona State University-Tempe,Tempe,AZ,85287,www.asu.edu/,33.422247,-111.934629,0.8291,1143
Arizona Western College,Yuma,AZ,85365-8834,www.azwestern.edu,32.689306,-114.495968,NULL,NULL
University of Arizona,Tucson,AZ,85721-0066,www.arizona.edu,32.232071,-110.950769,0.7643,NULL
Southwest University of Visual Arts-Tucson,Tucson,AZ,85716,www.suva.edu,32.252384,-110.927321,NULL,NULL
Central Arizona College,Coolidge,AZ,85128-9030,www.centralaz.edu,32.957092,-111.652501,NULL,NULL
Brown Mackie College-Tucson,Tucson,AZ,85712,www.brownmackie.edu,32.236736,-110.895086,NULL,NULL
Charles of Italy Beauty College,Lake Havasu City,AZ,86403,www.charlesofitaly.edu,34.475275,-114.328134,NULL,NULL
Cochise County Community College District,Douglas,AZ,85607-6190,www.cochise.edu,31.365757,-109.690422,NULL,NULL
Empire Beauty School-Flagstaff,Flagstaff,AZ,86004,www.empire.edu,35.197151,-111.625936,NULL,NULL
Empire Beauty School-Chandler,Chandler,AZ,85224,www.empire.edu,33.347586,-111.860423,NULL,NULL
Cortiva Institute-Tucson,Tucson,AZ,85710,www.cortiva.com/,32.21901,-110.856785,NULL,NULL
Avalon School of Cosmetology-Mesa,Mesa,AZ,85210,avalon.edu/locations/mesa-az/,33.376583,-111.858305,NULL,NULL
Eastern Arizona College,Thatcher,AZ,85552-0769,www.eac.edu,32.840719,-109.761664,NULL,NULL
Embry-Riddle Aeronautical University-Prescott,Prescott,AZ,86301-3720,prescott.erau.edu/,34.615678,-112.452285,0.7914,NULL
Frank Lloyd Wright School of Architecture,Scottsdale,AZ,85259,www.taliesin.edu,33.60715,-111.846477,NULL,NULL
Glendale Community College,Glendale,AZ,85302,www.gccaz.edu,33.567483,-112.188334,NULL,NULL
Grand Canyon University,Phoenix,AZ,85017,www.gcu.edu,33.512172,-112.129917,0.432,NULL
International Academy of Hair Design,Tempe,AZ,85282-6730,www.internationalacademyofhairdesign.com,33.38145,-111.940071,NULL,NULL
GateWay Community College,Phoenix,AZ,85034,www.gatewaycc.edu,33.4495,-111.996527,NULL,NULL
Mesa Community College,Mesa,AZ,85202,www.mesacc.edu,33.391256,-111.871494,NULL,NULL
ITT Technical Institute-Tucson,Tucson,AZ,85704-5829,www.itt-tech.edu,32.297261,-110.997501,0.927,NULL
ITT Technical Institute-Tempe,Tempe,AZ,85282,www.itt-tech.edu,33.380355,-111.969169,0.9539,NULL
Mohave Community College,Kingman,AZ,86409-1238,www.mohave.edu,35.270737,-114.030244,NULL,NULL
Universal Technical Institute of Arizona Inc-Motorcycle Mechanics Institute Division,Phoenix,AZ,85027,www.uti.edu/,33.684428,-112.121336,NULL,NULL
Dine College,Tsaile,AZ,86556,www.dinecollege.edu,36.293328,-109.21684,NULL,NULL
Northern Arizona University,Flagstaff,AZ,86011-4092,nau.edu/,35.180095,-111.657653,0.7706,NULL
Northland Pioneer College,Holbrook,AZ,86025-0610,www.npc.edu,34.922221,-110.1316,NULL,NULL
Ottawa University-Phoenix,Phoenix,AZ,85021,www.ottawa.edu,33.57172,-112.113301,NULL,NULL
Phoenix College,Phoenix,AZ,85013,www.phoenixcollege.edu,33.481361,-112.088293,NULL,NULL
Cortiva Institute-Scottsdale,Scottsdale,AZ,85257,www.cortiva.com/,33.466554,-111.908433,NULL,NULL
Pima Community College,Tucson,AZ,85709-1275,www.pima.edu,32.221737,-110.887033,NULL,NULL
Pima Medical Institute-Tucson,Tucson,AZ,85716,pmi.edu,32.250448,-110.921306,NULL,NULL
Pima Medical Institute-Albuquerque,Albuquerque,NM,87110,pmi.edu,35.10488,-106.594381,NULL,NULL
Prescott College,Prescott,AZ,86301,www.prescott.edu,34.5445,-112.476509,0.7043,1039
Refrigeration School Inc,Phoenix,AZ,85034-1816,www.refrigerationschool.com,33.448692,-111.989357,NULL,NULL
Rio Salado College,Tempe,AZ,85281,www.rio.maricopa.edu,33.413138,-111.975201,NULL,NULL
Roberto-Venn School of Luthiery,Phoenix,AZ,85007,www.roberto-venn.com,33.45489,-112.086161,NULL,NULL
Hair Academy of Safford,Safford,AZ,85546,hairacademysafford.com,32.835302,-109.727696,NULL,NULL
Scottsdale Community College,Scottsdale,AZ,85256,www.scottsdalecc.edu,33.509489,-111.887298,NULL,NULL
South Mountain Community College,Phoenix,AZ,85042,www.southmountaincc.edu,33.381001,-112.057515,NULL,NULL
Arizona Christian University,Phoenix,AZ,85032-7097,www.arizonachristian.edu,33.595117,-112.026211,0.5123,997
Tucson College,Tucson,AZ,85711,www.tucsoncollege.edu,32.22205,-110.883181,NULL,NULL
Universal Technical Institute of Arizona Inc,Avondale,AZ,85323,www.uti.edu,33.453533,-112.289693,NULL,NULL
Western International University,Tempe,AZ,85282,www.west.edu,33.403625,-111.964182,NULL,NULL
Empire Beauty School-NW Phoenix,Phoenix,AZ,85051,www.empire.edu,33.538093,-112.118168,NULL,NULL
Yavapai College,Prescott,AZ,86301,www.YC.EDU,34.547512,-112.454156,NULL,NULL
University of Arkansas at Little Rock,Little Rock,AR,72204,ualr.edu/www/,34.726644,-92.341835,0.8983,990
University of Arkansas for Medical Sciences,Little Rock,AR,72205-7199,www.uams.edu,34.749718,-92.320945,NULL,NULL
ABC Beauty College Inc,Arkadelphia,AR,71923,www.abc-beautycollege.com,34.12018,-93.080831,NULL,NULL
Arkansas Baptist College,Little Rock,AR,72202-6068,www.arkansasbaptist.edu,34.734751,-92.290555,NULL,NULL
Arkansas Beauty School-Little Rock,Little Rock,AR,72209,arkbeautyschool.com,34.669071,-92.334814,NULL,NULL
Arkansas Beauty College,Russellville,AR,72801,www.arkansasbeautycollegersvlar.com/,35.278622,-93.13522,NULL,NULL
Lyon College,Batesville,AR,72501,www.lyon.edu,35.778934,-91.628115,0.5912,1120
Arkansas College of Barbering and Hair Design,North Little Rock,AR,72114,www.arkansascollegeofbarbering.com,34.753621,-92.266336,NULL,NULL
Arthur's Beauty College Inc-Fort Smith,Fort Smith,AR,72901-3342,www.arthursbeautycollege.com,35.379955,-94.410967,NULL,NULL
University of Arkansas,Fayetteville,AR,72701,www.uark.edu,36.06153,-94.178214,0.6006,1154
University of Arkansas at Pine Bluff,Pine Bluff,AR,71601,www.uapb.edu,34.242192,-92.021263,0.4616,871
Arkansas State University-Beebe,Beebe,AR,72012-1000,www.asub.edu,35.074512,-91.896165,NULL,NULL
Arkansas State University-Main Campus,Jonesboro,AR,72401,www.astate.edu/edu,35.842779,-90.680478,0.7024,1088
Arkansas Tech University,Russellville,AR,72801-2222,www.atu.edu,35.295227,-93.13233,0.8911,NULL
University of Arkansas at Monticello,Monticello,AR,71656,www.uamont.edu/,33.589788,-91.812971,NULL,NULL
Arthur's Beauty College Inc-Jacksonville,Jacksonville,AR,72076,arthursbeautycollege.com,34.8918,-92.102284,NULL,NULL
Baptist Health College-Little Rock,Little Rock,AR,72210-2820,https://www.bhclr.edu,34.713115,-92.40692,0.3235,1050
Black River Technical College,Pocahontas,AR,72455,www.blackrivertech.edu,36.239793,-90.951033,NULL,NULL
University of Central Arkansas,Conway,AR,72035-0001,www.uca.edu,35.078196,-92.45931,0.9218,1068
Central Baptist College,Conway,AR,72034,www.cbc.edu,35.084574,-92.444102,0.4749,968
Cossatot Community College of the University of Arkansas,De Queen,AR,71832,www.cccua.edu/,34.043389,-94.3673,NULL,NULL
Crowley's Ridge College,Paragould,AR,72450,www.crc.edu/,36.066239,-90.58482,NULL,NULL
Crowley's Ridge Technical Institute,Forrest City,AR,72335-0925,www.crti.tec.ar.us,35.041908,-90.767807,NULL,NULL
East Arkansas Community College,Forrest City,AR,72335-2204,https://WWW.EACC.EDU,35.039673,-90.767445,NULL,NULL
Eastern College of Health Vocations-Little Rock,Little Rock,AR,72205,www.easterncollege.edu,34.75126,-92.341981,NULL,NULL
Imagine-Paul Mitchell Partner School,North Little Rock,AR,72117,paulmitchell.edu/littlerock,34.791306,-92.221304,NULL,NULL
National Park College,Hot Springs,AR,71913,www.np.edu,34.512731,-93.117111,NULL,NULL
University of Arkansas Community College-Batesville,Batesville,AR,72503-3350,www.uaccb.edu,35.79293,-91.616123,NULL,NULL
Harding University,Searcy,AR,72149-5615,www.harding.edu,35.249605,-91.729008,0.992,1135
Henderson State University,Arkadelphia,AR,71999-0001,www.hsu.edu,34.127792,-93.060313,0.6334,988
Hendrix College,Conway,AR,72032-3080,www.hendrix.edu,35.09972,-92.442021,0.8238,1270
Hot Springs Beauty College,Hot Springs,AR,71901,hotspringsbeautycollege.com,34.496287,-93.038381,NULL,NULL
Jefferson Regional Medical Center School of Nursing,Pine Bluff,AR,71603,www.jrmc.org,34.187831,-92.018045,NULL,NULL
John Brown University,Siloam Springs,AR,72761,www.jbu.edu,36.191077,-94.559088,0.7376,1209
Lees School of Cosmetology,North  Little Rock,AR,72114-3800,www.leesschool.com,34.781993,-92.296729,NULL,NULL
Career Academy of Hair Design,Springdale,AR,72764-7128,www.beautynwa.com,36.16757,-94.131834,NULL,NULL
Academy of Salon and Spa,Fort Smith,AR,72901,www.academysalonspa.com,35.380891,-94.416327,NULL,NULL
Arkansas State University Mid-South,West Memphis,AR,72301-3829,www.asumidsouth.edu,35.145736,-90.22285,NULL,NULL
Arkansas Northeastern College,Blytheville,AR,72316-1109,www.anc.edu,35.897362,-89.922491,NULL,NULL
Margaret's Hair Academy Inc,Monticello,AR,71655,margarethairacademy.com,33.629169,-91.7887,NULL,NULL
New Tyler Barber College Inc,North Little Rock,AR,72114-4973,newtylerbarbercollege.edu,34.759076,-92.254108,NULL,NULL
North Arkansas College,Harrison,AR,72601-5508,www.northark.edu,36.220528,-93.087317,NULL,NULL
Northwest Technical Institute,Springdale,AR,72764,www.nwti.edu,36.178617,-94.116433,NULL,NULL
Ouachita Baptist University,Arkadelphia,AR,71998-0001,www.obu.edu,34.125045,-93.052442,0.6845,1120
College of the Ouachitas,Malvern,AR,72104-0816,www.coto.edu,34.378745,-92.821416,NULL,NULL
Ozarka College,Melbourne,AR,72556-0010,www.ozarka.edu,36.053031,-91.896355,NULL,NULL
University of the Ozarks,Clarksville,AR,72830,https://www.ozarks.edu,35.477785,-93.467924,0.9677,1034
University of Arkansas Community College-Morrilton,Morrilton,AR,72110,www.uaccm.edu,35.172136,-92.728507,0.6647,930
Philander Smith College,Little Rock,AR,72202-3799,www.philander.edu,34.73666,-92.28242,NULL,NULL
Phillips Community College of the University of Arkansas,Helena,AR,72342-0785,www.pccua.edu,34.544976,-90.617745,NULL,NULL
Southeast Arkansas College,Pine Bluff,AR,71603,www.seark.edu,34.209797,-92.024731,NULL,NULL
Professional Cosmetology Education Center,El Dorado,AR,71730-4009,www.pcec.edu,33.215124,-92.663131,NULL,NULL
Pulaski Technical College,North Little Rock,AR,72118-3347,www.pulaskitech.edu,34.78243,-92.299729,NULL,NULL
University of Arkansas Community College-Hope,Hope,AR,71801,www.uacch.edu,33.64791,-93.584528,NULL,NULL
Rich Mountain Community College,Mena,AR,71953,www.rmcc.edu,34.590793,-94.2197,NULL,NULL
Paul Mitchell the School-Arkansas,Fayetteville,AR,72703,www.pmtsarkansas.com,36.12681,-94.154191,NULL,NULL
Searcy Beauty College,Searcy,AR,72143,searcybeautycollege.com/,35.237723,-91.73454,NULL,NULL
Shorter College,N Little Rock,AR,72114,www.shortercollege.edu,34.75933,-92.261331,NULL,NULL
Williams Baptist College,Walnut Ridge,AR,72476,www.wbcoll.edu,36.126825,-90.939876,0.6375,1010
South Arkansas Community College,El Dorado,AR,71731-7010,www.southark.edu,33.209446,-92.666087,NULL,NULL
Southern Arkansas University Main Campus,Magnolia,AR,71753,https://www.saumag.edu,33.291195,-93.235087,0.6748,988
Southern Arkansas University Tech,Camden,AR,71701-1906,www.sautech.edu,33.63037,-92.719498,NULL,NULL
Velvatex College of Beauty Culture,Little Rock,AR,72202-5452,www.velvatexcollege.com,34.735724,-92.289758,NULL,NULL
University of Arkansas-Fort Smith,Fort Smith,AR,72913-3649,uafs.edu/,35.385345,-94.374073,0.5581,NULL
Academy of Art University,San Francisco,CA,94105,www.academyart.edu,37.787748,-122.400686,NULL,NULL
ITT Technical Institute-Rancho Cordova,Rancho Cordova,CA,95670-6034,www.itt-tech.edu,38.59172,-121.281506,0.9317,NULL
Academy of Chinese Culture and Health Sciences,Oakland,CA,94612,www.acchs.edu,37.806662,-122.272733,NULL,NULL
The Academy of Radio and TV Broadcasting,Huntington Beach,CA,92647,WWW.ARBRADIO.COM,33.728895,-117.987666,NULL,NULL
Avalon School of Cosmetology-Alameda,Alameda,CA,94501,avalon.edu/locations/alameda-ca/,37.764203,-122.243566,NULL,NULL
College of Alameda,Alameda,CA,94501,www.peralta.edu,37.78239,-122.279261,NULL,NULL
Allan Hancock College,Santa Maria,CA,93454-6399,www.hancockcollege.edu/,34.942979,-120.421486,NULL,NULL
American Academy of Dramatic Arts-Los Angeles,Los Angeles,CA,90028,WWW.AADA.EDU,34.095315,-118.344097,0.1557,NULL
American Baptist Seminary of the West,Berkeley,CA,94704-3029,www.absw.edu,37.865252,-122.256149,NULL,NULL
American Film Institute Conservatory,Los Angeles,CA,90027-1625,www.AFI.com,34.10846,-118.309989,NULL,NULL
American Beauty College,West Covina,CA,91790,www.americanbeautycollege.com,33.884391,-118.125036,NULL,NULL
American Career College-Los Angeles,Los Angeles,CA,90004,americancareercollege.edu/,34.079236,-118.292282,NULL,NULL
American Conservatory Theater,San Francisco,CA,94108-5834,www.act-sf.org,37.787326,-122.404945,1,NULL
American River College,Sacramento,CA,95841-4286,www.arc.losrios.edu/,38.649734,-121.346012,NULL,NULL
Antelope Valley College,Lancaster,CA,93536-5426,www.avc.edu,34.676207,-118.186166,NULL,NULL
Art Center College of Design,Pasadena,CA,91103,www.artcenter.edu,34.170844,-118.186901,0.7951,NULL
Associated Technical College-Los Angeles,Los Angeles,CA,90017-1604,www.atcla.edu,34.055987,-118.27243,NULL,NULL
Associated Technical College-San Diego,San Diego,CA,92101,www.atcsd.edu,32.715658,-117.158203,NULL,NULL
Azusa Pacific University,Azusa,CA,91702-7000,www.apu.edu,34.130865,-117.88795,0.809,1080
Bakersfield College,Bakersfield,CA,93305-1299,www.bakersfieldcollege.edu/,35.4108,-118.973491,NULL,NULL
Barstow Community College,Barstow,CA,92311,www.barstow.edu,34.871451,-117.02523,NULL,NULL
Bellus Academy-National City,National City,CA,91950,www.bellusacademy.edu,32.676762,-117.090235,NULL,NULL
Bethesda University,Anaheim,CA,92801,www.buc.edu,33.842295,-117.941323,NULL,NULL
Biola University,La Mirada,CA,90639-0001,www.biola.edu,33.904823,-118.017342,0.6985,1115
Brooks Institute,Ventura,CA,93001,www.brooks.edu,34.33851,-119.295231,0.9755,NULL
Brownson Technical School,Anaheim,CA,92805,www.brownson.edu,33.819,-117.906409,NULL,NULL
Bryan University,Los Angeles,CA,90010,bryanuniversity.edu,34.061406,-118.302882,NULL,NULL
Butte College,Oroville,CA,95965-8399,www.butte.edu,39.649116,-121.644691,NULL,NULL
Phillips Graduate University,Chatsworth,CA,91311,pgu.edu,34.24203,-118.567631,NULL,NULL
California Institute of Integral Studies,San Francisco,CA,94103,www.ciis.edu,37.774768,-122.416537,NULL,NULL
Cabrillo College,Aptos,CA,95003,www.cabrillo.edu,36.9891,-121.927926,NULL,NULL
California Baptist University,Riverside,CA,92504-3297,www.calbaptist.edu,33.928569,-117.42587,0.6541,960
California College of the Arts,San Francisco,CA,94107-2247,www.cca.edu,37.76723,-122.399941,0.6854,NULL
University of California-Hastings College of Law,San Francisco,CA,94102-4978,www.uchastings.edu,37.780718,-122.415395,NULL,NULL
California Institute of Technology,Pasadena,CA,91125,www.caltech.edu,34.139275,-118.12574,0.0881,1544
California Lutheran University,Thousand Oaks,CA,91360-2787,www.callutheran.edu/,34.225551,-118.879467,0.6156,1109
California Polytechnic State University-San Luis Obispo,San Luis Obispo,CA,93407,calpoly.edu,35.29889,-120.65856,0.3129,1259
Alliant International University-San Diego,San Diego,CA,92131,www.alliant.edu,32.897056,-117.094398,0.9155,NULL
California State University-Bakersfield,Bakersfield,CA,93311-1099,www.csub.edu,35.350005,-119.104711,0.6875,NULL
California State University-Stanislaus,Turlock,CA,95382-0299,www.csustan.edu,37.52577,-120.852511,0.7063,NULL
California State University-San Bernardino,San Bernardino,CA,92407-2397,www.csusb.edu,34.182987,-117.322508,0.6459,887
California State Polytechnic University-Pomona,Pomona,CA,91768,www.cpp.edu,34.054273,-117.819019,0.3931,1066
California State University-Chico,Chico,CA,95929-0150,www.csuchico.edu,39.728003,-121.846333,0.6345,1003
California State University-Dominguez Hills,Carson,CA,90747-0005,www.csudh.edu,33.86524,-118.259316,0.5277,NULL
California State University-Fresno,Fresno,CA,93740,www.csufresno.edu,36.814477,-119.748258,0.5219,897
California State University-Fullerton,Fullerton,CA,92831-3599,www.fullerton.edu,33.883627,-117.885349,0.4186,1024
California State University-East Bay,Hayward,CA,94542,www.csueastbay.edu,37.65707,-122.058073,0.7403,NULL
California State University-Long Beach,Long Beach,CA,90840-0115,www.csulb.edu,33.782752,-118.1123,0.3382,1056
California State University-Los Angeles,Los Angeles,CA,90032-8506,www.calstatela.edu,34.066927,-118.168965,0.6813,874
California State University-Northridge,Northridge,CA,91330,www.csun.edu,34.23671,-118.526817,0.456,902
California State University-Sacramento,Sacramento,CA,95819-2694,www.csus.edu,38.55745,-121.42194,0.6725,948
University of California-Berkeley,Berkeley,CA,94720,www.berkeley.edu,37.871969,-122.260423,0.1688,1397
University of California-Davis,Davis,CA,95616-8678,www.ucdavis.edu,38.539895,-121.751958,0.3795,1226
University of California-Irvine,Irvine,CA,92697,www.uci.edu/,33.648434,-117.841248,0.3868,1175
University of California-Los Angeles,Los Angeles,CA,90095-1405,www.ucla.edu/,34.068892,-118.443901,0.1728,1339
University of California-Riverside,Riverside,CA,92521,WWW.UCR.EDU,33.97588,-117.331098,0.556,1119
University of California-San Diego,La Jolla,CA,92093,www.ucsd.edu,32.876598,-117.237793,0.3374,1344
University of California-San Francisco,San Francisco,CA,94143-0244,www.ucsf.edu,37.762736,-122.458049,NULL,NULL
University of California-Santa Barbara,Santa Barbara,CA,93106,www.ucsb.edu,34.416281,-119.846404,0.3264,1248
University of California-Santa Cruz,Santa Cruz,CA,95064-1011,www.ucsc.edu/,36.997258,-122.067993,0.5029,1201
Sofia University,Palo Alto,CA,94303,www.sofia.edu,37.430325,-122.10866,NULL,NULL
California Beauty School,Modesto,CA,95354,www.calbeautycollege.edu,37.645217,-120.99689,NULL,NULL
California Christian College,Fresno,CA,93727,www.calchristiancollege.edu,36.75031,-119.711208,1,NULL
Le Cordon Bleu College of Culinary Arts-San Francisco,San Francisco,CA,94103,www.caculinary.edu,37.765415,-122.402643,NULL,NULL
California Hair Design Academy,La Mesa,CA,91941-5055,chdaschools.com,32.765221,-117.024261,NULL,NULL
California Institute of the Arts,Valencia,CA,91355-2397,www.calarts.edu,34.393337,-118.567303,0.2493,NULL
California State University Maritime Academy,Vallejo,CA,94590,https://www.csum.edu,38.069061,-122.231551,0.6617,NULL
California Western School of Law,San Diego,CA,92101-3046,https://www.cwsl.edu,32.72194,-117.162597,NULL,NULL
Canada College,Redwood City,CA,94061-1099,canadacollege.edu,37.447365,-122.265549,NULL,NULL
College of the Canyons,Santa Clarita,CA,91355-1899,www.canyons.edu,34.403121,-118.569524,NULL,NULL
Career Academy of Beauty,Garden Grove,CA,92845,CAofB.com,33.781018,-118.031697,NULL,NULL
Casa Loma College-Van Nuys,Van Nuys,CA,91405,www.casalomacollege.edu,34.195438,-118.448335,0.8052,NULL
CET-San Diego,San Diego,CA,92102,www.cetweb.org/index.php,32.711715,-117.122496,NULL,NULL
CET-Sobrato,San Jose,CA,95110,cetweb.org,37.322723,-121.88698,NULL,NULL
CET-El Centro,El Centro,CA,92243,cetweb.org,32.790908,-115.549079,NULL,NULL
CET-Colton,Colton,CA,92324,cetweb.org,34.075136,-117.268738,NULL,NULL
CET-Watsonville,Watsonville,CA,95076,www.cetweb.org,36.931833,-121.767991,NULL,NULL
CET-Salinas,Salinas,CA,93901,cetweb.org,36.671635,-121.652791,NULL,NULL
Cerritos College,Norwalk,CA,90650-6298,www.cerritos.edu,33.88584,-118.097263,NULL,NULL
Cerro Coso Community College,Ridgecrest,CA,93555-9571,cerrocoso.edu,35.567763,-117.667706,NULL,NULL
Chabot College,Hayward,CA,94545,www.chabotcollege.edu,37.642513,-122.106969,NULL,NULL
Chaffey College,Rancho Cucamonga,CA,91737-3002,www.chaffey.edu,34.14705,-117.573086,NULL,NULL
Chapman University,Orange,CA,92866,www.chapman.edu,33.793678,-117.851481,0.4758,1217
Charles R Drew University of Medicine and Science,Los Angeles,CA,90059,www.cdrewu.edu,33.925658,-118.242791,NULL,NULL
Concordia University-Irvine,Irvine,CA,92612-3203,www.cui.edu,33.6535,-117.81063,0.5917,1029
San Diego Christian College,Santee,CA,92071,www.sdcc.edu,32.84281,-116.978151,0.5173,933
Church Divinity School of the Pacific,Berkeley,CA,94709-1211,www.cdsp.edu,37.876169,-122.261391,NULL,NULL
Citrus College,Glendora,CA,91741-1899,www.citruscollege.edu,34.135487,-117.885266,NULL,NULL
Citrus Heights Beauty College,Citrus Heights,CA,95610-1410,www.chbeautycollege.com,38.71307,-121.289531,NULL,NULL
City College of San Francisco,San Francisco,CA,94112-1898,www.ccsf.edu,37.725953,-122.451155,NULL,NULL
Claremont Graduate University,Claremont,CA,91711-6160,www.cgu.edu,34.103778,-117.712394,NULL,NULL
Claremont McKenna College,Claremont,CA,91711-6400,www.cmc.edu,34.102323,-117.706593,0.1096,1408
Milan Institute-Visalia,Visalia,CA,93277,www.milaninstitute.edu,36.27164,-119.312151,NULL,NULL
Clovis Adult Education,Clovis,CA,93611,www.clovisadultschool.com,36.836915,-119.69019,NULL,NULL
Coastline Community College,Fountain Valley,CA,92708-2597,www.coastline.edu,33.609771,-117.861844,NULL,NULL
Cogswell College,San Jose,CA,95134,www.cogswell.edu,37.413664,-121.940553,0.6074,NULL
Coleman University,San Diego,CA,92123-1506,www.coleman.edu,32.821962,-117.136493,0.7356,NULL
Coba Cosmetology Academy,Orange,CA,92866,www.coba.edu,33.788258,-117.85348,NULL,NULL
Western University of Health Sciences,Pomona,CA,91766-1854,www.westernu.edu,34.058092,-117.747732,NULL,NULL
Columbia College,Sonora,CA,95370,www.gocolumbia.edu/,38.030361,-120.387603,NULL,NULL
Columbia College-Hollywood,Tarzana,CA,91356-1411,https://www.columbiacollege.edu,34.179596,-118.538394,0.8358,NULL
El Camino College-Compton Center,Compton,CA,90221-5393,www.compton.edu,33.876665,-118.209186,NULL,NULL
Contra Costa College,San Pablo,CA,94806-3195,www.contracosta.edu,37.968623,-122.342386,NULL,NULL
Cosumnes River College,Sacramento,CA,95823-5799,www.crc.losrios.edu/,38.453836,-121.422971,NULL,NULL
Crafton Hills College,Yucaipa,CA,92339-1799,www.craftonhills.edu,34.038513,-117.100826,NULL,NULL
Cuesta College,San Luis Obispo,CA,93403-8106,www.cuesta.edu,35.329859,-120.741624,NULL,NULL
Cuyamaca College,El Cajon,CA,92019,www.cuyamaca.edu,32.743072,-116.941044,NULL,NULL
Cypress College,Cypress,CA,90630-5897,www.cypresscollege.edu,33.827625,-118.023889,NULL,NULL
De Anza College,Cupertino,CA,95014,www.deanza.edu/,37.319176,-122.045365,NULL,NULL
International School of Beauty Inc,Palm Desert,CA,92260-2740,internationalschoolofbeauty.com,33.729555,-116.403928,NULL,NULL
Dell'Arte International School of Physical Theatre,Blue Lake,CA,95525-0816,www.dellarte.com/school,40.880871,-123.988878,NULL,NULL
College of the Desert,Palm Desert,CA,92260,collegeofthedesert.edu,33.732484,-116.38761,NULL,NULL
Design Institute of San Diego,San Diego,CA,92121,www.disd.edu,32.731022,-117.149808,NULL,NULL
Diablo Valley College,Pleasant Hill,CA,94523,www.dvc.edu,37.968035,-122.069861,NULL,NULL
Dominican University of California,San Rafael,CA,94901-2298,www.dominican.edu,37.980014,-122.514654,0.7883,1054
Dominican School of Philosophy & Theology,Berkeley,CA,94708-1816,https://www.dspt.edu,37.881099,-122.264612,NULL,NULL
East Los Angeles College,Monterey Park,CA,91754-6099,www.elac.edu/,34.039205,-118.148384,NULL,NULL
El Camino Community College District,Torrance,CA,90506,www.elcamino.edu,33.885586,-118.326623,NULL,NULL
Elegance International,Hollywood,CA,90028-6106,ei.edu/,34.062216,-118.338332,NULL,NULL
Emperor's College of Traditional Oriental Medicine,Santa Monica,CA,90403,www.emperors.edu,34.0303,-118.4847,NULL,NULL
Empire College,Santa Rosa,CA,95403-2126,www.empcol.edu,38.467789,-122.728642,NULL,NULL
Evergreen Valley College,San Jose,CA,95135-1598,www.evc.edu,37.301736,-121.766686,NULL,NULL
FIDM-Fashion Institute of Design & Merchandising-Los Angeles,Los Angeles,CA,90015-1421,www.fidm.edu,34.044209,-118.25993,0.4926,NULL
FIDM-Fashion Institute of Design & Merchandising-San Francisco,San Francisco,CA,94108-5805,WWW.FIDM.EDU,37.786324,-122.406503,0.4802,NULL
FIDM-Fashion Institute of Design & Merchandising-Orange County,Irvine,CA,92614-5610,www.FIDM.edu,33.691963,-117.852254,0.5793,NULL
Feather River Community College District,Quincy,CA,95971-9124,www.frc.edu,39.952395,-120.970877,NULL,NULL
Federico Beauty Institute,Sacramento,CA,95834,federico.edu,38.64883,-121.497761,NULL,NULL
Fielding Graduate University,Santa Barbara,CA,93105-3538,www.fielding.edu,34.42941,-119.717161,NULL,NULL
Five Branches University,Santa Cruz,CA,95062,www.fivebranches.edu,36.964133,-121.998478,NULL,NULL
Redondo Beach Beauty College,Redondo Beach,CA,90278-3111,RedondoBeachBeautyCollege.com,33.872914,-118.372315,NULL,NULL
Foothill College,Los Altos Hills,CA,94022,www.foothill.edu,37.361104,-122.12833,NULL,NULL
Franciscan School of Theology,Oceanside,CA,92057,www.fst.edu,33.23023,-117.319616,NULL,NULL
Fredrick and Charles Beauty College,Eureka,CA,95501,www.fandcbeauty.com,40.798811,-124.165778,NULL,NULL
Fresno City College,Fresno,CA,93741,www.fresnocitycollege.edu,36.767516,-119.795129,NULL,NULL
Fresno Pacific University,Fresno,CA,93702-4709,www.fresno.edu,36.725279,-119.731953,0.6313,988
Fuller Theological Seminary in California,Pasadena,CA,91182,www.fuller.edu,34.14778,-118.140261,NULL,NULL
Fullerton College,Fullerton,CA,92832-2095,www.fullcoll.edu,33.876794,-117.916986,NULL,NULL
Gavilan College,Gilroy,CA,95020,www.gavilan.edu,36.973274,-121.568174,NULL,NULL
Gemological Institute of America-Carlsbad,Carlsbad,CA,92008,www.gia.edu/gem-education,33.131313,-117.318765,NULL,NULL
Glendale Community College,Glendale,CA,91208-2894,www.glendale.edu,34.166422,-118.228251,NULL,NULL
Glendale Career College,Glendale,CA,91203,www.success.edu,34.1497,-118.254231,NULL,NULL
Golden Gate University-San Francisco,San Francisco,CA,94105-2968,www.ggu.edu,37.789208,-122.398785,NULL,NULL
Golden West College,Huntington Beach,CA,92647-2710,www.goldenwestcollege.edu,33.733775,-118.003036,NULL,NULL
Graduate Theological Union,Berkeley,CA,94709,WWW.GTU.EDU,37.87554,-122.261847,NULL,NULL
Grossmont College,El Cajon,CA,92020-1799,www.grossmont.edu/,32.816077,-117.007292,NULL,NULL
Salon Success Academy-Riverside,Riverside,CA,92506,www.gotobeautyschool.com,33.94297,-117.391021,NULL,NULL
Hartnell College,Salinas,CA,93901,www.hartnell.edu,36.673052,-121.668763,NULL,NULL
Harvey Mudd College,Claremont,CA,91711,https://www.hmc.edu,34.106137,-117.710594,0.1296,1484
Hilltop Beauty School,Daly City,CA,94014,www.hilltopbeautyschool.com,37.705545,-122.461674,NULL,NULL
Holy Names University,Oakland,CA,94619-1699,www.hnu.edu,37.802654,-122.18717,0.43,858
Pacifica Graduate Institute,Carpinteria,CA,93013,www.pacifica.edu,34.420464,-119.580264,NULL,NULL
Humboldt State University,Arcata,CA,95521-8299,www.humboldt.edu,40.8741,-124.0814,0.77,990
Humphreys University-Stockton and Modesto Campuses,Stockton,CA,95207-3896,www.humphreys.edu,38.011051,-121.316401,NULL,NULL
Imperial Valley College,Imperial,CA,92251-0158,www.imperial.edu,32.827563,-115.503903,NULL,NULL
Institute for Business and Technology,Santa Clara,CA,95051-1303,ibttech.com,37.368642,-121.969541,NULL,NULL
Interior Designers Institute,Newport Beach,CA,92660,idi.edu,33.641393,-117.865722,NULL,NULL
Toni & Guy Hairdressing Academy-Santa Monica,Santa Monica,CA,90401,toniguy.com/academy/santa_monica_beauty_school/default.aspx,34.017466,-118.494898,NULL,NULL
Irvine Valley College,Irvine,CA,92618-0301,www.ivc.edu,33.675079,-117.778575,NULL,NULL
ITT Technical Institute-National City,National City,CA,91950,www.itt-tech.edu,32.66182,-117.106121,0.88,NULL
ITT Technical Institute-San Dimas,San Dimas,CA,91773,www.itt-tech.edu,34.102405,-117.818401,0.9653,NULL
ITT Technical Institute-Orange,Orange,CA,92868,www.itt-tech.edu,33.77999,-117.896171,0.8462,NULL
Bellus Academy-El Cajon,El Cajon,CA,92021,www.bellusacademy.edu,32.794827,-116.945728,NULL,NULL
John F. Kennedy University,Pleasant Hill,CA,94523-4817,www.jfku.edu,37.881794,-122.183972,NULL,NULL
American Jewish University,Los Angeles,CA,90077-1519,www.aju.edu,34.128099,-118.471764,0.8036,NULL
Reedley College,Reedley,CA,93654,www.reedleycollege.edu,36.605968,-119.45993,NULL,NULL
Life Pacific College,San Dimas,CA,91773-3298,www.lifepacific.edu,34.089421,-117.830997,0.6384,901
Argosy University-The Art Institute of California-San Diego,San Diego,CA,92108-4423,www.artinstitutes.edu/san-diego/,32.778278,-117.155395,NULL,NULL
University of La Verne,La Verne,CA,91750-4401,www.laverne.edu/,34.10086,-117.772634,0.4718,1034
Laguna College of Art and Design,Laguna Beach,CA,92651,www.lcad.edu,33.561448,-117.772564,0.3727,NULL
Lake Tahoe Community College,South Lake Tahoe,CA,96150,www.ltcc.edu,38.926864,-119.971631,NULL,NULL
Lancaster Beauty School,Lancaster,CA,93534,lancasterbeautyschool.com,34.695646,-118.148664,NULL,NULL
Laney College,Oakland,CA,94607,www.laney.edu/wp/,37.796205,-122.262434,NULL,NULL
Lassen Community College,Susanville,CA,96130,www.lassencollege.edu/,40.431327,-120.631169,NULL,NULL
Life Chiropractic College West,Hayward,CA,94545-2800,www.lifewest.edu,37.637639,-122.11627,NULL,NULL
Lincoln University,Oakland,CA,94612-2801,www.lincolnuca.edu,37.804788,-122.269745,NULL,NULL
Southern California Seminary,El Cajon,CA,92019-1108,www.socalsem.edu,32.803259,-116.900531,NULL,NULL
La Sierra University,Riverside,CA,92515-8247,https://lasierra.edu,33.908834,-117.497071,0.4462,929
Loma Linda University,Loma Linda,CA,92350,www.llu.edu/index.html,34.050975,-117.261086,NULL,NULL
Long Beach City College,Long Beach,CA,90808-1706,www.lbcc.edu,33.831741,-118.135819,NULL,NULL
Southern California University of Health Sciences,Whittier,CA,90604,www.scuhs.edu,33.924638,-117.985447,NULL,NULL
Los Angeles Harbor College,Wilmington,CA,90744-2397,www.lahc.edu,33.784201,-118.28186,NULL,NULL
Los Angeles Pierce College,Woodland Hills,CA,91371-0002,www.piercecollege.edu,34.184184,-118.577194,NULL,NULL
Los Angeles Southwest College,Los Angeles,CA,90047-4899,www.lasc.edu,33.929586,-118.304674,NULL,NULL
Los Angeles Trade Technical College,Los Angeles,CA,90015-4181,www.lattc.edu,34.032623,-118.269113,NULL,NULL
Los Angeles Valley College,Valley Glen,CA,91401-4096,www.lavc.edu,34.176406,-118.421446,NULL,NULL
The Master's University and Seminary,Santa Clarita,CA,91321-1200,www.masters.edu,34.38214,-118.517422,0.9469,1091
Los Angeles City College,Los Angeles,CA,90029,www.lacitycollege.edu/,34.087301,-118.292169,NULL,NULL
Los Angeles County College of Nursing and Allied Health,Los Angeles,CA,90033-1084,dhs.org/wps/portal/CollegeofNursing,34.061605,-118.211418,NULL,NULL
Los Angeles Mission College,Sylmar,CA,91342-3200,www.lamission.edu,34.314944,-118.419087,NULL,NULL
Los Medanos College,Pittsburg,CA,94565,www.losmedanos.edu/default.aspx,38.005552,-121.861122,NULL,NULL
Argosy University-The Art Institute of California-San Francisco,San Francisco,CA,94102-4908,www.artinstitutes.edu/san-francisco/,37.803958,-122.417185,NULL,NULL
Loyola Marymount University,Los Angeles,CA,90045-2659,www.lmu.edu,33.970633,-118.415655,0.5078,1222
Lu Ross Academy,Ventura,CA,93001-2729,www.lurossacademy.com/,34.278034,-119.293952,NULL,NULL
Lyles Fresno College of Beauty,Fresno,CA,93710,lylescolleges.com,36.836251,-119.773747,NULL,NULL
Lytles Redwood Empire Beauty College Inc,Santa Rosa,CA,95403,www.lytlesrebc.edu/,38.508581,-122.758546,NULL,NULL
MTI Business College Inc,Stockton,CA,95207-4349,www.mtistockton.com,38.007318,-121.308527,NULL,NULL
MTI College,Sacramento,CA,95841-9817,www.mticollege.edu,38.661377,-121.342568,0.7815,NULL
Brightwood College-Sacramento,Sacramento,CA,95821,www.brightwood.edu,38.644462,-121.380453,NULL,NULL
Brightwood College-San Diego,San Diego,CA,92123,www.brightwood.edu,32.821707,-117.133017,NULL,NULL
Brightwood College-Vista,Vista,CA,92083-7736,www.brightwood.edu,33.17244,-117.220816,NULL,NULL
College of Marin,Kentfield,CA,94904-2590,www.marin.edu,37.955014,-122.549936,NULL,NULL
Marymount California University,Rancho Palos Verdes,CA,90275-6299,www.marymountcalifornia.edu/,33.73463,-118.333404,NULL,NULL
Mendocino College,Ukiah,CA,95482,www.mendocino.edu,39.19119,-123.22903,NULL,NULL
Menlo College,Atherton,CA,94027-4301,www.menlo.edu,37.452906,-122.181444,0.3808,1018
Merced College,Merced,CA,95348-2898,www.mccd.edu,37.335348,-120.476726,NULL,NULL
Merritt College,Oakland,CA,94619-3196,www.merritt.edu,37.789088,-122.167335,NULL,NULL
Mills College,Oakland,CA,94613,https://www.mills.edu,37.782639,-122.18789,0.7156,1183
MiraCosta College,Oceanside,CA,92056-3899,www.miracosta.edu,33.191231,-117.302283,NULL,NULL
Mission College,Santa Clara,CA,95054-1897,www.missioncollege.edu/,37.391323,-121.982174,NULL,NULL
Modern Beauty Academy,Oxnard,CA,93030,www.modernbeautyacademy.org,34.195384,-119.181423,NULL,NULL
Brightwood College-North Hollywood,North Hollywood,CA,91606-3231,www.brightwood.edu,34.182673,-118.396131,NULL,NULL
Modesto Junior College,Modesto,CA,95350-5800,www.mjc.edu,37.652042,-121.009723,NULL,NULL
Moler Barber College,Oakland,CA,94609-2419,moler.org,37.826826,-122.265094,NULL,NULL
Middlebury Institute of International Studies at Monterey,Monterey,CA,93940,www.miis.edu,36.599827,-121.896813,NULL,1383
Monterey Peninsula College,Monterey,CA,93940-4799,www.mpc.edu,36.590826,-121.885774,NULL,NULL
Moorpark College,Moorpark,CA,93021-1695,www.moorparkcollege.edu/index.shtml,34.300018,-118.836624,NULL,NULL
Mt San Antonio College,Walnut,CA,91789-1399,www.mtsac.edu,34.043786,-117.8437,NULL,NULL
Mount Saint Mary's University,Los Angeles,CA,90049-1599,www.msmu.edu,34.082112,-118.480471,0.7653,915
Mt San Jacinto Community College District,San Jacinto,CA,92583-2399,www.msjc.edu,33.807364,-116.970063,NULL,NULL
Mueller College,San Diego,CA,92108-3002,www.mueller.edu,32.76557,-117.163811,NULL,NULL
Musicians Institute,Hollywood,CA,90028,www.mi.edu,34.101527,-118.33783,0.8593,NULL
Napa Valley College,Napa,CA,94558-6236,www.napavalley.edu,38.27254,-122.272565,NULL,NULL
National Holistic Institute,Emeryville,CA,94608-2008,www.nhi.edu,37.841898,-122.287672,NULL,NULL
National University,La Jolla,CA,92037-1011,www.nu.edu,32.909469,-117.244243,NULL,NULL
Newschool of Architecture and Design,San Diego,CA,92101,www.newschoolarch.edu,32.71331,-117.153305,0.9722,NULL
Newberry School of Beauty,Granada Hills,CA,91344-7401,www.newberryschoolofbeauty.net,34.25748,-118.499469,NULL,NULL
North Adrian's College of Beauty Inc,Modesto,CA,95350-2381,www.adrians.edu,37.677778,-120.992753,NULL,NULL
North-West College-Pomona,Pomona,CA,91768,www.north-westcollege.edu,34.06203,-117.751861,NULL,NULL
North-West College-West Covina,West Covina,CA,91790,www.north-westcollege.edu,34.072071,-117.949583,1,NULL
North-West College-Pasadena,Pasadena,CA,91101,www.north-westcollege.edu,34.146907,-118.139266,NULL,NULL
Notre Dame de Namur University,Belmont,CA,94002-1908,www.ndnu.edu,37.517501,-122.284618,0.8667,910
Occidental College,Los Angeles,CA,90041-3392,www.oxy.edu,34.126224,-118.210783,0.4487,1304
Oceanside College of Beauty,Oceanside,CA,92054-5356,www.ocb.edu/,33.178889,-117.365276,NULL,NULL
Ohlone College,Fremont,CA,94539-0390,www.ohlone.edu,37.527956,-121.914597,NULL,NULL
Orange Coast College,Costa Mesa,CA,92626,www.orangecoastcollege.edu/,33.670171,-117.911401,NULL,NULL
Otis College of Art and Design,Los Angeles,CA,90045-3505,www.otis.edu,33.956607,-118.416615,0.9036,1045
Oxnard College,Oxnard,CA,93033-6699,www.oxnardcollege.edu,34.164899,-119.15549,NULL,NULL
Hope International University,Fullerton,CA,92831-3199,www.hiu.edu,33.87616,-117.88573,0.3425,910
Concorde Career College-San Diego,San Diego,CA,92113-1964,www.concorde.edu,32.70406,-117.10187,0.8261,NULL
Palo Alto University,Palo Alto,CA,94304-1337,www.paloaltou.edu,37.383251,-122.186022,NULL,NULL
Pacific Lutheran Theological Seminary,Berkeley,CA,94708-1597,www.plts.edu,37.898172,-122.260201,NULL,NULL
Pacific Oaks College,Pasadena,CA,91103,www.pacificoaks.edu,34.153073,-118.151573,NULL,NULL
Pacific School of Religion,Berkeley,CA,94709,www.psr.edu,37.876599,-122.263331,NULL,NULL
Pacific States University,Los Angeles,CA,90010,www.psuca.edu,34.0607,-118.299841,NULL,NULL
Pacific Union College,Angwin,CA,94508-9707,www.puc.edu,38.57409,-122.449639,0.4522,984
University of the Pacific,Stockton,CA,95211-0197,www.pacific.edu,37.980624,-121.307296,0.6456,1152
Palo Verde College,Blythe,CA,92225,www.paloverde.edu,33.661538,-114.651698,NULL,NULL
Palomar College,San Marcos,CA,92069-1487,www2.palomar.edu/,33.15019,-117.181718,NULL,NULL
Paris Beauty College,Concord,CA,94520,www.Parisbeautycollege.com,37.972204,-122.043458,NULL,NULL
Pasadena City College,Pasadena,CA,91106-2003,pasadena.edu/,34.144552,-118.118196,NULL,NULL
Pepperdine University,Malibu,CA,90263,www.pepperdine.edu/,34.041912,-118.707677,0.381,1226
Pitzer College,Claremont,CA,91711-6101,www.pitzer.edu,34.103408,-117.705939,0.1347,NULL
Platt College-San Diego,San Diego,CA,92115-3919,www.platt.edu,32.76373,-117.063483,NULL,NULL
Point Loma Nazarene University,San Diego,CA,92106-2899,www.pointloma.edu,32.713295,-117.251204,0.7134,1148
Pomona College,Claremont,CA,91711-6319,www.pomona.edu,34.098298,-117.711944,0.103,1435
Porterville College,Porterville,CA,93257,www.portervillecollege.edu,36.049256,-119.014368,NULL,NULL
Professional Institute of Beauty,El Monte,CA,91731,www.pib.edu,34.075,-118.038,NULL,NULL
Santa Ana College,Santa Ana,CA,92706-3398,www.sac.edu,33.759203,-117.888384,NULL,NULL
Pardee RAND Graduate School,Santa Monica,CA,90407-2138,www.prgs.edu,34.009975,-118.49047,NULL,NULL
Shasta School of Cosmetology,Redding,CA,96003,www.shastaschoolofcosmetology.com,40.59709,-122.387231,NULL,NULL
University of Redlands,Redlands,CA,92373-0999,www.redlands.edu,34.063571,-117.163847,0.6752,1130
College of the Redwoods,Eureka,CA,95501-9300,www.redwoods.edu,40.696744,-124.195075,NULL,NULL
Salon Success Academy-Upland,Upland,CA,91786,www.gotobeautyschool.com,34.108353,-117.631091,NULL,NULL
Salon Success Academy-Corona,Corona,CA,92879,www.gotobeautyschool.com,33.84778,-117.535451,NULL,NULL
Rio Hondo College,Whittier,CA,90601-1616,www.riohondo.edu,34.019878,-118.033329,NULL,NULL
Riverside City College,Riverside,CA,92506,www.rcc.edu/riverside/,33.971481,-117.38054,NULL,NULL
Argosy University-San Francisco Bay Area,Alameda,CA,94501,www.argosy.edu/locations/san-francisco,37.781238,-122.267523,NULL,NULL
Rosemead Beauty School,Rosemead,CA,91770-1639,www.rosemead-beauty-school.com,34.080756,-118.082793,NULL,NULL
Dongguk University-Los Angeles,Los Angeles,CA,90020-1704,www.dula.edu,34.066226,-118.289927,NULL,NULL
Rudolf Steiner College,Fair Oaks,CA,95628-6811,www.steinercollege.edu,38.63481,-121.288571,NULL,NULL
Sacramento City College,Sacramento,CA,95822-1386,www.scc.losrios.edu/,38.541883,-121.49166,NULL,NULL
Saddleback College,Mission Viejo,CA,92692-3635,www.saddleback.edu,33.551925,-117.664876,NULL,NULL
Samuel Merritt University,Oakland,CA,94609,www.samuelmerritt.edu,37.82029,-122.266331,NULL,NULL
San Diego City College,San Diego,CA,92101-4787,www.sdcity.edu/,32.718855,-117.151641,NULL,NULL
Golf Academy of America-San Diego,Carlsbad,CA,92008,www.golfacademy.edu,33.12291,-117.283394,NULL,NULL
San Diego Mesa College,San Diego,CA,92111-4998,www.sdmesa.edu/,32.804935,-117.169072,NULL,NULL
San Diego Miramar College,San Diego,CA,92126-2999,www.sdmiramar.edu/,32.909546,-117.120888,NULL,NULL
San Diego State University,San Diego,CA,92182,www.sdsu.edu,32.77525,-117.071228,0.3441,1130
University of San Diego,San Diego,CA,92110-2492,www.sandiego.edu,32.77142,-117.188721,0.5168,1236
San Francisco Art Institute,San Francisco,CA,94133-2299,www.sfai.edu,37.803575,-122.417,0.6536,NULL
San Francisco Conservatory of Music,San Francisco,CA,94102-6011,www.sfcm.edu,37.775322,-122.420143,0.4669,NULL
San Francisco State University,San Francisco,CA,94132,www.sfsu.edu,37.721345,-122.477905,0.6788,979
San Francisco Theological Seminary,San Anselmo,CA,94960-0000,www.sfts.edu,37.969594,-122.564302,NULL,NULL
University of San Francisco,San Francisco,CA,94117-1080,https://www.usfca.edu,37.775564,-122.450977,0.6436,1172
San Joaquin College of Law,Clovis,CA,93612-1312,www.sjcl.edu,36.823978,-119.6978,NULL,NULL
San Joaquin Delta College,Stockton,CA,95207,deltacollege.edu/index.html,37.994643,-121.317226,NULL,NULL
San Joaquin Valley College-Visalia,Visalia,CA,93291-9283,www.sjvc.edu,36.328049,-119.384981,NULL,NULL
William Jessup University,Rocklin,CA,95765-3707,WWW.JESSUP.EDU,38.819494,-121.292968,0.7605,1012
San Jose City College,San Jose,CA,95128-2798,www.sjcc.edu,37.316293,-121.929747,NULL,NULL
San Jose State University,San Jose,CA,95192-0001,www.sjsu.edu,37.335201,-121.881214,0.5522,1055
College of San Mateo,San Mateo,CA,94402-3784,www.collegeofsanmateo.edu,37.534357,-122.336078,NULL,NULL
Santa Barbara Business College-Bakersfield,Bakersfield,CA,93309,sbbcollege.edu,35.359544,-119.061264,NULL,NULL
Santa Barbara Business College-Santa Maria,Santa Maria,CA,93454,sbbcollege.edu,34.403862,-119.699744,NULL,NULL
Santa Barbara City College,Santa Barbara,CA,93109-2394,www.sbcc.edu,34.406788,-119.698045,NULL,NULL
Santa Clara University,Santa Clara,CA,95053,www.scu.edu,37.352706,-121.938189,0.488,1313
Santa Monica College,Santa Monica,CA,90405-1628,www.smc.edu,34.018968,-118.470431,NULL,NULL
Santa Rosa Junior College,Santa Rosa,CA,95401-4395,www.santarosa.edu,38.45416,-122.720689,NULL,NULL
Saybrook University,Oakland,CA,94612-1943,www.saybrook.edu,37.80446,-122.272391,NULL,NULL
Scripps College,Claremont,CA,91711-3905,www.scrippscollege.edu,34.103655,-117.711336,0.279,1362
College of the Sequoias,Visalia,CA,93277-2214,www.cos.edu,36.322957,-119.314775,NULL,NULL
Shasta Bible College and Graduate School,Redding,CA,96002,www.shasta.edu,40.564208,-122.315742,0.7273,NULL
Shasta College,Redding,CA,96003,www.shastacollege.edu,40.625731,-122.317982,NULL,NULL
Sierra College,Rocklin,CA,95677-3397,www.sierracollege.edu,38.792758,-121.212646,NULL,NULL
Sierra College of Beauty,Merced,CA,95340,sierrabeautycollege.net,37.306585,-120.495668,NULL,NULL
Sierra Valley College of Court Reporting,Fresno,CA,93726,www.sierravalleycollege.edu,36.802756,-119.773017,NULL,NULL
Trinity Law School,Santa Ana,CA,92705,tls.edu,33.766071,-117.852059,NULL,1042
Simpson University,Redding,CA,96003-8606,www.simpsonu.edu,40.61331,-122.333048,0.5152,1001
College of the Siskiyous,Weed,CA,96094-2899,www.siskiyous.edu,41.413848,-122.389166,NULL,NULL
Charles A Jones Career and Education Center,Sacramento,CA,95824-1529,www.caj.scusd.edu,38.51651,-121.44111,NULL,NULL
Skyline College,San Bruno,CA,94066-1698,skylinecollege.edu,37.630543,-122.465978,NULL,NULL
San Bernardino Valley College,San Bernardino,CA,92410-2798,www.valleycollege.edu,34.088717,-117.313814,NULL,NULL
Saint Mary's College of California,Moraga,CA,94575,www.stmarys-ca.edu,37.83997,-122.106795,0.9754,1124
Solano Community College,Fairfield,CA,94534-3197,www.solano.edu,38.235513,-122.120232,NULL,NULL
Sonoma State University,Rohnert Park,CA,94928-3609,www.sonoma.edu,38.341023,-122.673261,0.7655,996
South Baylo University,Anaheim,CA,92801-1701,www.southbaylo.edu,33.847936,-117.958663,NULL,NULL
South Coast College,Orange,CA,92868-2609,www.SOUTHCOASTCOLLEGE.EDU,33.787946,-117.874109,NULL,NULL
Vanguard University of Southern California,Costa Mesa,CA,92626,www.vanguard.edu,33.662686,-117.900911,0.6826,975
Concorde Career College-Garden Grove,Garden Grove,CA,92840-9201,www.concorde.edu,33.774741,-117.938395,0.8701,NULL
Southwestern College,Chula Vista,CA,91910-7299,www.swccd.edu/,32.641567,-116.997215,NULL,NULL
Starr King School for the Ministry,Berkeley,CA,94709-1209,www.sksm.edu,37.876939,-122.261778,NULL,NULL
Marshall B Ketchum University,Fullerton,CA,92831-1699,www.ketchum.edu,33.889819,-117.886158,NULL,NULL
Southern California Institute of Architecture,Los Angeles,CA,90013-1822,www.sciarc.edu,34.04365,-118.232703,0.7336,1116
University of Southern California,Los Angeles,CA,90089,www.usc.edu/,34.021058,-118.283858,0.1768,1391
Southwestern Law School,Los Angeles,CA,90010-1106,www.swlaw.edu,34.061558,-118.288375,NULL,NULL
Taft College,Taft,CA,93268,www.taftcollege.edu,35.149343,-119.459751,NULL,NULL
Claremont School of Theology,Claremont,CA,91711-3199,www.cst.edu,34.107602,-117.715256,NULL,NULL
Thomas Aquinas College,Santa Paula,CA,93060,https://www.thomasaquinas.edu,34.429009,-119.087141,0.7513,1280
Epic Bible College,Sacramento,CA,95841,EPIC.edu,38.64499,-121.362221,NULL,NULL
United Education Institute-Huntington Park Campus,Huntington Park,CA,90255,www.uei.edu/,33.986057,-118.226206,NULL,NULL
Concorde Career College-San Bernardino,San Bernardino,CA,92408-3403,www.concorde.edu,34.06722,-117.28398,0.7462,NULL
Universal College of Beauty Inc-Los Angeles 1,Los Angeles,CA,90008,ucbla.net,33.959435,-118.292148,NULL,NULL
Concorde Career College-North Hollywood,North Hollywood,CA,91606-3134,www.concorde.edu,34.186464,-118.403755,0.8111,NULL
Ventura College,Ventura,CA,93003-3872,www.venturacollege.edu/,34.277035,-119.230659,NULL,NULL
Victor Valley Beauty College Inc,Victorville,CA,92395,www.victorvalleybeautycollege.com,34.528578,-117.303918,NULL,NULL
Victor Valley College,Victorville,CA,92395-5850,www.vvc.edu,34.472231,-117.261456,NULL,NULL
Berkeley City College,Berkeley,CA,94704,www.berkeleycitycollege.edu/wp/,37.87047,-122.269793,NULL,NULL
Walden University,Minneapolis,MN,55401,www.waldenu.edu,44.98137,-93.265741,NULL,NULL
Waynes College of Beauty,Salinas,CA,93906-2830,www.waynescollegeofbeauty.com,36.700462,-121.6523,NULL,NULL
West Hills College-Coalinga,Coalinga,CA,93210,www.westhillscollege.com,36.147891,-120.356747,NULL,NULL
West Los Angeles College,Culver City,CA,90230-3519,www.wlac.edu,34.005578,-118.387578,NULL,NULL
West Valley College,Saratoga,CA,95070-5698,www.westvalley.edu,37.263133,-122.009701,NULL,NULL
Carrington College-Sacramento,Sacramento,CA,95826,www.carrington.edu,38.561777,-121.36892,0.9339,NULL
Westminster Theological Seminary in California,Escondido,CA,92027,www.wscal.edu,33.121447,-117.046371,NULL,NULL
Westmont College,Santa Barbara,CA,93108-1089,www.westmont.edu,34.449265,-119.661932,0.8122,1179
Whittier College,Whittier,CA,90601,www.whittier.edu,33.977625,-118.028402,0.6262,1057
Woodbury University,Burbank,CA,91510-7846,woodbury.edu/,34.209226,-118.340692,0.576,944
The Wright Institute,Berkeley,CA,94704-1796,www.wi.edu,37.868221,-122.253168,NULL,NULL
Western State College of Law at Argosy University,Fullerton,CA,92831-3014,www.wsulaw.edu,33.880672,-117.890274,NULL,NULL
Thomas Jefferson School of Law,San Diego,CA,92101,www.tjsl.edu,32.71014,-117.154191,NULL,NULL
Yeshiva Ohr Elchonon Chabad West Coast Talmudical Seminary,Los Angeles,CA,90046,www.yoec.edu/,34.085494,-118.346688,0.5842,NULL
Yuba College,Marysville,CA,95901,yc.yccd.edu,39.125995,-121.539316,NULL,NULL
The Salon Professional Academy-Grand Junction,Grand Junction,CO,81501,GrandJunctionBeautySchool.com,39.07799,-108.564961,NULL,NULL
Adams State University,Alamosa,CO,81101,www.adams.edu,37.477238,-105.880943,0.6435,954
Aims Community College,Greeley,CO,80634,www.aims.edu,40.409037,-104.764335,NULL,NULL
Arapahoe Community College,Littleton,CO,80160-9002,www.arapahoe.edu,39.607505,-105.018631,NULL,NULL
Bel-Rea Institute of Animal Technology,Denver,CO,80247,www.bel-rea.com,39.686066,-104.875292,0.355,NULL
Everest College-Colorado Springs,Colorado Springs,CO,80916,www.everest.edu/campus/colorado_springs,38.807095,-104.740267,NULL,NULL
University of Colorado Denver/Anschutz Medical Campus,Denver,CO,80217-3364,www.ucdenver.edu/,39.74603,-104.999181,0.6742,1055
University of Colorado Colorado Springs,Colorado Springs,CO,80918,www.uccs.edu,38.892735,-104.800296,0.9206,1088
Redstone College,Broomfield,CO,80021-3465,www.redstone.edu,39.914822,-105.119096,NULL,NULL
University of Colorado Boulder,Boulder,CO,80309-0017,www.colorado.edu,40.004415,-105.267061,0.7962,1212
Colorado Christian University,Lakewood,CO,80226,WWW.CCU.EDU,39.711701,-105.094836,NULL,NULL
Colorado College,Colorado Springs,CO,80903,www.coloradocollege.edu,38.84657,-104.82422,0.1713,NULL
Concorde Career College-Aurora,Aurora,CO,80010-4314,www.concorde.edu,39.718699,-104.867089,0.6436,NULL
The Art Institute of Colorado,Denver,CO,80203-2983,www.artinstitutes.edu/denver/,39.735587,-104.985847,NULL,NULL
Colorado Mountain College,Glenwood Springs,CO,81601-0233,coloradomtn.edu/,39.54634,-107.324401,NULL,NULL
Colorado Northwestern Community College,Rangely,CO,81648-3598,www.cncc.edu,40.080745,-108.790296,NULL,NULL
Colorado School of Mines,Golden,CO,80401,www.mines.edu,39.75079,-105.227148,0.3767,1339
Colorado School of Trades,Lakewood,CO,80215-2996,schooloftrades.edu,39.741009,-105.103945,NULL,NULL
Colorado State University-Fort Collins,Fort Collins,CO,80523-0100,www.colostate.edu,40.574759,-105.08083,0.8082,1145
Colorado Technical University-Colorado Springs,Colorado Springs,CO,80907-3812,www.coloradotech.edu/Colorado-Springs,38.894265,-104.833928,NULL,NULL
Empire Beauty School-Lakewood,Lakewood,CO,80226,www.empire.edu,39.722781,-105.082104,NULL,NULL
Community College of Aurora,Aurora,CO,80011-9036,www.ccaurora.edu,39.717767,-104.801861,NULL,NULL
CollegeAmerica-Denver,Denver,CO,80222,www.collegeamerica.edu,39.691571,-104.94118,NULL,NULL
Delta Montrose Technical College,Delta,CO,81416,www.dmtc.edu,38.702524,-108.031072,NULL,NULL
Community College of Denver,Denver,CO,80204-2026,www.ccd.edu,39.74142,-105.003007,NULL,NULL
Lincoln College of Technology-Denver,Denver,CO,80239,www.lincolnedu.com/campus/denver-co,39.77651,-104.856171,NULL,NULL
Denver Seminary,Littleton,CO,80120,www.denverseminary.edu,39.600595,-105.022363,NULL,NULL
University of Denver,Denver,CO,80208,www.du.edu,39.695954,-104.964625,0.7275,1249
Emily Griffith Technical College,Denver,CO,80203,www.emilygriffith.edu,39.74574,-104.985711,NULL,NULL
Fort Lewis College,Durango,CO,81301-3999,fortlewis.edu/,37.275428,-107.867003,0.8596,1012
Front Range Community College,Westminster,CO,80031,www.frontrange.edu,39.901757,-105.039359,NULL,NULL
Glenwood Beauty Academy,Glenwood Springs,CO,81601,glenwoodbeautyacademy.org,39.561947,-107.359099,NULL,NULL
Hair Dynamics Education Center,Fort Collins,CO,80525,www.hairdynamics.com,40.497241,-105.076492,NULL,NULL
Iliff School of Theology,Denver,CO,80210-4798,www.iliff.edu,39.674876,-104.959703,NULL,NULL
International Salon and Spa Academy,Colorado Springs,CO,80918-3684,www.issaco.edu,38.913621,-104.786252,NULL,NULL
Lamar Community College,Lamar,CO,81052-3999,https://www.lamarcc.edu,38.058067,-102.615612,NULL,NULL
Colorado Mesa University,Grand Junction,CO,81501-3122,www.coloradomesa.edu,39.076354,-108.540281,0.8306,952
Metropolitan State University of Denver,Denver,CO,80217-3362,www.msudenver.edu/,39.742248,-105.002391,0.6522,971
Morgan Community College,Fort  Morgan,CO,80701,www.morgancc.edu,40.258792,-103.771822,NULL,NULL
Naropa University,Boulder,CO,80302-6697,www.naropa.edu,40.014816,-105.267073,0.7956,NULL
National American University-Colorado Springs,Colorado Springs,CO,80920,www.national.edu/locations/campuses/colorado-springs/,38.95211,-104.790581,NULL,NULL
National American University-Denver,Denver,CO,80222-3308,www.national.edu,39.691953,-104.941649,NULL,NULL
Nazarene Bible College,Colorado Springs,CO,80910-3704,www.nbc.edu,38.814124,-104.751124,NULL,NULL
Northeastern Junior College,Sterling,CO,80751-2944,www.njc.edu,40.636879,-103.197536,NULL,NULL
University of Northern Colorado,Greeley,CO,80639,www.unco.edu,40.403178,-104.701721,0.8935,1031
Otero Junior College,La Junta,CO,81050,WWW.OJC.EDU,37.971184,-103.544779,NULL,NULL
Everest College-Thornton,Thornton,CO,80229,www.everest.edu/campus/thornton,39.86156,-104.985441,NULL,NULL
Pikes Peak Community College,Colorado Springs,CO,80906-5498,www.ppcc.edu,38.764287,-104.787261,NULL,NULL
IBMC College,Colorado Springs,CO,80919,www.ibmc.edu,38.931,-104.814211,NULL,NULL
Pueblo Community College,Pueblo,CO,81004-1499,www.pueblocc.edu,38.263458,-104.636396,NULL,NULL
Red Rocks Community College,Lakewood,CO,80228-1255,www.rrcc.edu,39.720277,-105.150094,NULL,NULL
Regis University,Denver,CO,80221-1099,www.regis.edu/,39.78976,-105.031385,0.657,1092
Rocky Mountain College of Art and Design,Lakewood,CO,80214,www.rmcad.edu,39.74332,-105.069911,NULL,NULL
Montessori Education Center of the Rockies,Boulder,CO,80301,www.mecr.edu,39.96504,-105.25311,1,NULL
Colorado State University-Pueblo,Pueblo,CO,81001-4901,www.csupueblo.edu,38.309219,-104.579846,0.9589,970
Pickens Technical College,Aurora,CO,80011-9307,www.pickenstech.org,39.723527,-104.78998,NULL,NULL
Intellitec College-Colorado Springs,Colorado Springs,CO,80909-6096,www.IntelliTecCollege.com,38.832183,-104.78721,NULL,NULL
Intellitec College-Grand Junction,Grand Junction,CO,81506,www.intellitec.edu,39.116346,-108.53062,NULL,NULL
Trinidad State Junior College,Trinidad,CO,81082,www.trinidadstate.edu/,37.172939,-104.512184,NULL,NULL
Empire Beauty School-Thornton,Thornton,CO,80233,www.empire.edu,39.914863,-104.943533,NULL,NULL
Western State Colorado University,Gunnison,CO,81231,www.western.edu,38.547421,-106.91971,0.9761,964
Albertus Magnus College,New Haven,CT,06511-1189,www.albertus.edu,41.332519,-72.923848,NULL,NULL
Paul Mitchell the School-Danbury,Danbury,CT,6810,paulmitchell.edu/danbury,41.39648,-73.451841,NULL,NULL
Asnuntuck Community College,Enfield,CT,6082,www.Asnuntuck.edu,41.998409,-72.570177,NULL,NULL
Branford Hall Career Institute-Branford Campus,Branford,CT,6405,www.schooliya.com/peg/Branford/index.html,41.278557,-72.848201,NULL,NULL
Lincoln College of New England-Southington,Southington,CT,06489-1057,www.lincolncollegene.edu,41.632345,-72.920217,NULL,NULL
Bridgeport Hospital School of Nursing,Bridgeport,CT,6610,www.bridgeporthospital.org/bhsn/,41.189413,-73.165185,NULL,NULL
University of Bridgeport,Bridgeport,CT,06604-5620,www.bridgeport.edu,41.165587,-73.189352,0.5177,926
Central Connecticut State University,New Britain,CT,6050,www.ccsu.edu,41.690258,-72.770094,0.5867,1011
Charter Oak State College,New Britain,CT,6053,www.charteroak.edu,41.688246,-72.767972,NULL,NULL
Connecticut Center for Massage Therapy-Newington,Newington,CT,06111-3975,www.ccmt.edu/programs.html,41.685072,-72.710705,NULL,NULL
Connecticut College,New London,CT,06320-4196,www.conncoll.edu,41.379833,-72.107321,0.3997,NULL
Porter and Chester Institute of Branford,Branford,CT,6405,www.porterchester.com,41.277311,-72.854898,NULL,NULL
University of Connecticut,Storrs,CT,6269,uconn.edu/,41.806261,-72.247969,0.5317,1233
Goodwin College,East Hartford,CT,6118,www.goodwin.edu,41.74405,-72.6403,NULL,NULL
Lincoln Technical Institute-East Windsor,East Windsor,CT,6088,www.lincolnedu.com/campus/east-windsor-ct,41.924248,-72.596915,NULL,NULL
Eastern Connecticut State University,Willimantic,CT,6226,www.easternct.edu/,41.721673,-72.218753,0.6356,NULL
Fairfield University,Fairfield,CT,06824-5195,fairfield.edu,41.160732,-73.25778,0.6497,NULL
Paul Mitchell the School-North Haven,North Haven,CT,6473,paulmitchell.edu/northhaven,41.394495,-72.85745,NULL,NULL
Capital Community College,Hartford,CT,6103,www.ccc.commnet.edu,41.768397,-72.672734,NULL,NULL
Rensselaer Hartford Graduate Center Inc,Hartford,CT,6120,ewp.rpi.edu/index.html,41.773462,-72.673916,NULL,1368
American Institute-West Hartford,West Hartford,CT,06110-1922,americaninstitute.edu,41.727016,-72.725762,NULL,NULL
Hartford Seminary,Hartford,CT,06105-2260,www.hartsem.edu,41.769861,-72.707766,NULL,NULL
University of Hartford,West Hartford,CT,06117-1599,www.hartford.edu,41.796485,-72.714965,0.6351,1050
Holy Apostles College and Seminary,Cromwell,CT,06416-2005,www.holyapostles.edu,41.60682,-72.647853,NULL,NULL
Housatonic Community College,Bridgeport,CT,06604-4704,www.hcc.commnet.edu,41.175228,-73.191003,NULL,NULL
Manchester Community College,Manchester,CT,6040,www.manchestercc.edu/,41.760484,-72.562577,NULL,NULL
Naugatuck Valley Community College,Waterbury,CT,06708-3089,www.nv.edu,41.549564,-73.071209,NULL,NULL
Middlesex Community College,Middletown,CT,06457-4829,www.mxcc.edu,41.539516,-72.611838,NULL,NULL
Mitchell College,New London,CT,6320,www.mitchell.edu,41.328075,-72.095337,0.737,NULL
Three Rivers Community College,Norwich,CT,6360,www.threerivers.edu,41.509945,-72.103039,NULL,NULL
Lincoln Technical Institute-New Britain,New Britain,CT,6051,www.lincolnedu.com/campus/new-britain-ct,41.659236,-72.754498,NULL,NULL
New England Tractor Trailer Training School of Connecticut,Somers,CT,6071,WWW.NETTTS.COM,41.978355,-72.451739,NULL,NULL
University of New Haven,West Haven,CT,06516-1916,www.newhaven.edu,41.291314,-72.961472,0.8212,1066
Ridley-Lowell Business & Technical Institute-New London,New London,CT,6320,www.ridley.edu,41.349947,-72.100514,NULL,NULL
Norwalk Community College,Norwalk,CT,6854,www.ncc.commnet.edu,41.102574,-73.450965,NULL,NULL
Northwestern Connecticut Community College,Winsted,CT,6098,www.nwcc.commnet.edu,41.920982,-73.059291,NULL,NULL
Paier College of Art Inc,Hamden,CT,06514-3902,www.paiercollegeofart.edu,41.347714,-72.935048,NULL,NULL
Porter and Chester Institute of Stratford,Stratford,CT,06615-7158,www.porterchester.com,41.169646,-73.149023,NULL,NULL
Post University,Waterbury,CT,6723,www.post.edu/,41.535334,-73.080525,0.8113,893
Quinebaug Valley Community College,Danielson,CT,06239-1436,qvcc.edu,41.82623,-71.889673,NULL,NULL
Quinnipiac University,Hamden,CT,6518,www.quinnipiac.edu,41.419527,-72.895542,0.7371,1095
Sacred Heart University,Fairfield,CT,06825-1000,www.sacredheart.edu,41.221548,-73.24461,0.5897,NULL
University of Saint Joseph,West Hartford,CT,6117,www.usj.edu,41.783028,-72.730489,0.9268,932
Gateway Community College,New Haven,CT,6510,www.gatewayct.edu/,41.30432,-72.927191,NULL,NULL
St Vincent's College,Bridgeport,CT,06606-4201,www.stvincentscollege.edu,41.201198,-73.201106,0.8533,905
Southern Connecticut State University,New Haven,CT,06515-1355,www.southernct.edu,41.331852,-72.948806,0.646,918
Stone Academy-West Haven,West Haven,CT,6516,www.stoneacademy.com,41.2678,-72.977191,NULL,NULL
Tri-State College of Acupuncture,New York,NY,10011,www.TSCA.edu,40.739862,-74.002085,NULL,NULL
Trinity College,Hartford,CT,06106-3100,www.trincoll.edu,41.746746,-72.688684,0.3341,NULL
Tunxis Community College,Farmington,CT,06032-3187,www.tunxis.edu,41.705498,-72.87754,NULL,NULL
Wesleyan University,Middletown,CT,6459,www.wesleyan.edu,41.55678,-72.656755,0.222,NULL
Western Connecticut State University,Danbury,CT,06810-6826,www.wcsu.edu,41.400365,-73.444264,0.5729,NULL
Yale University,New Haven,CT,6520,www.yale.edu,41.311158,-72.926688,0.0673,1498
Margaret H Rollins School of Nursing at Beebe Medical Center,Lewes,DE,19958,www.beebehealthcare.org/school-nursing,38.771265,-75.142425,NULL,NULL
Dawn Career Institute LLC,Wilmington,DE,19805-1511,www.dawncareerinstitute.edu,39.754694,-75.594268,NULL,NULL
Delaware Technical Community College-Terry,Dover,DE,19901,https://www.dtcc.edu/our-campuses/dover,39.198371,-75.56012,NULL,NULL
Delaware State University,Dover,DE,19901,www.desu.edu,39.187173,-75.54053,0.4443,892
University of Delaware,Newark,DE,19716,www.udel.edu/,39.679574,-75.752917,0.6659,1198
Goldey-Beacom College,Wilmington,DE,19808,www.gbc.edu,39.742464,-75.694018,0.4419,NULL
Schilling-Douglas School of Hair Design LLC,Newark,DE,19711,schillingdouglas.edu/,39.710939,-75.742386,NULL,NULL
Wesley College,Dover,DE,19901-3875,www.wesley.edu,39.16325,-75.527377,0.6255,836
Wilmington University,New Castle,DE,19720,www.wilmu.edu,39.682299,-75.586998,NULL,NULL
American University,Washington,DC,20016-8001,WWW.AMERICAN.EDU,38.937802,-77.090106,0.3502,1252
Catholic University of America,Washington,DC,20064,www.cua.edu,38.935796,-76.998961,0.7857,NULL
University of the District of Columbia,Washington,DC,20008,www.udc.edu,38.943819,-77.066247,NULL,NULL
Pontifical Faculty of the Immaculate Conception at the Dominican House of Studies,Washington,DC,20017-1585,www.dhs.edu/,38.931427,-76.998806,NULL,NULL
Gallaudet University,Washington,DC,20002-3695,www.gallaudet.edu,38.907371,-76.993675,0.6192,883
George Washington University,Washington,DC,20052,www.gwu.edu,38.89865,-77.047871,0.4646,1294
Georgetown University,Washington,DC,20057-0001,www.georgetown.edu,38.908809,-77.073463,0.1724,1416
Howard University,Washington,DC,20059-0001,www.howard.edu,38.920739,-77.019478,0.4904,1105
Medtech Institute,Falls Church,VA,22042,www.medtech.edu/schools/falls-church-virginia,38.86969,-77.170381,NULL,NULL
Strayer University-District of Columbia,Washington,DC,20005,www.strayer.edu/district-columbia/washington,38.904851,-77.034349,NULL,NULL
National Conservatory of Dramatic Arts,Washington,DC,20007,www.theconservatory.org,38.910024,-77.065095,1,NULL
Trinity Washington University,Washington,DC,20017-1094,www.trinitydc.edu,38.927398,-77.004261,0.9405,NULL
Wesley Theological Seminary,Washington,DC,20016-5690,www.wesleyseminary.edu/,38.939606,-77.08996,NULL,NULL
Wyotech-Daytona,Ormond Beach,FL,32174,www.wyotech.edu,29.349365,-81.133086,NULL,NULL
The Art Institute of Fort Lauderdale,Fort Lauderdale,FL,33316-3000,www.artinstitutes.edu/fort-lauderdale,26.101246,-80.123514,NULL,NULL
Atlantic Technical College,Coconut Creek,FL,33063-3902,www.atlantictechnicalcollege.edu,26.243609,-80.185311,NULL,NULL
The Baptist College of Florida,Graceville,FL,32440,www.baptistcollege.edu,30.956401,-85.519033,0.5217,946
Barry University,Miami,FL,33161-6695,www.barry.edu,25.878865,-80.196136,0.5506,926
Bethune-Cookman University,Daytona Beach,FL,32114-3099,www.cookman.edu,29.210193,-81.031429,NULL,NULL
Lynn University,Boca Raton,FL,33431-5598,www.lynn.edu,26.382777,-80.123851,0.7597,999
GUTI The Premier Beauty & Wellness Academy,Bradenton,FL,34210,www.mybeautyacademy.com,27.46281,-82.602211,NULL,NULL
Bradford-Union Technical Center,Starke,FL,32091,www.butc.edu,29.952134,-82.123082,NULL,NULL
Eastern Florida State College,Cocoa,FL,32922,www.easternflorida.edu,28.384791,-80.75813,NULL,NULL
Broward College,Fort Lauderdale,FL,33301,www.broward.edu,26.07972,-80.23541,NULL,NULL
Fortis College-Winter Park,Winter Park,FL,32789,www.fortis.edu,28.555401,-81.448402,NULL,NULL
Carlos Albizu University-Miami,Miami,FL,33172-2209,www.albizu.edu,25.795162,-80.355002,0.72,NULL
College of Central Florida,Ocala,FL,34474,www.cf.edu,29.166079,-82.175692,NULL,NULL
Johnson University Florida,Kissimmee,FL,34744,www.johnsonu.edu/florida,28.301869,-81.362512,0.3919,1009
University of Central Florida,Orlando,FL,32816,www.ucf.edu/,28.60106,-81.198805,0.4857,1179
Charlotte Technical College,Port Charlotte,FL,33948-3399,www.charlottetechcollege.net,27.005558,-82.147238,NULL,NULL
Chipola College,Marianna,FL,32446-2053,www.chipola.edu,30.790647,-85.231946,NULL,NULL
Lorenzo Walker Technical College,Naples,FL,34104-4405,lwtc.edu/,26.141199,-81.763355,NULL,NULL
Daytona State College,Daytona Beach,FL,32114,www.DaytonaState.edu,29.202286,-81.051266,NULL,NULL
South University-West Palm Beach,Royal Palm Beach,FL,33411,"www.southuniversity.edu/west-palm-beach#location=West%20Palm%20Beach,%20FL",26.69165,-80.19969,NULL,NULL
Eckerd College,Saint Petersburg,FL,33711-4700,www.eckerd.edu,27.718996,-82.685992,0.7172,1134
Florida SouthWestern State College,Fort Myers,FL,33919,www.fsw.edu,26.554737,-81.887375,NULL,NULL
Edward Waters College,Jacksonville,FL,32209,www.ewc.edu,30.34513,-81.684817,0.5371,781
Embry-Riddle Aeronautical University-Daytona Beach,Daytona Beach,FL,32114-3900,daytonabeach.erau.edu/,29.189244,-81.0495,0.6895,NULL
Florida Agricultural and Mechanical University,Tallahassee,FL,32307,www.famu.edu,30.428554,-84.285644,0.5141,966
Florida Atlantic University,Boca Raton,FL,33431-0991,www.fau.edu/,26.372536,-80.102293,0.6768,1047
Florida State College at Jacksonville,Jacksonville,FL,32202,www.fscj.edu,30.334918,-81.659901,NULL,NULL
Flagler College-St Augustine,Saint Augustine,FL,32084,www.flagler.edu,29.89335,-81.315256,0.5048,1071
Florida College,Temple Terrace,FL,33617,www.floridacollege.edu,28.034911,-82.383446,0.8114,1008
Concorde Career Institute-Jacksonville,Jacksonville,FL,32256-6905,www.concorde.edu,30.23977,-81.581821,0.6083,NULL
Concorde Career Institute-Miramar,Miramar,FL,33025,www.concorde.edu,26.175119,-80.203007,0.722,NULL
Concorde Career Institute-Tampa,Tampa,FL,33607-4127,www.concorde.edu,27.959058,-82.515082,0.7403,NULL
Adventist University of Health Sciences,Orlando,FL,32803,www.adu.edu,28.576142,-81.367687,0.6032,928
Florida Institute of Technology,Melbourne,FL,32901-6975,www.fit.edu,28.064503,-80.624628,0.5736,1194
Florida Institute of Ultrasound Inc,Pensacola,FL,32514,www.fiuonline.net,30.534939,-87.220615,NULL,NULL
Florida International University,Miami,FL,33199,www.fiu.edu,25.757111,-80.377591,0.504,1090
Florida Keys Community College,Key West,FL,33040,www.fkcc.edu,24.582748,-81.74446,NULL,NULL
Florida Memorial University,Miami Gardens,FL,33054-6199,www.fmuniv.edu,25.917854,-80.270672,0.2435,NULL
Florida Career College-Miami,Miami,FL,33174,www.anthem.edu/,25.755342,-80.366666,NULL,NULL
Florida School of Massage,Gainesville,FL,32608-5419,www.floridaschoolofmassage.com/,29.593484,-82.338528,NULL,NULL
Florida Southern College,Lakeland,FL,33801-5698,www.flsouthern.edu,28.031507,-81.945791,0.4533,1172
Florida State University,Tallahassee,FL,32306-1037,www.fsu.edu,30.4421,-84.294801,0.559,1215
Florida Technical College,Orlando,FL,32826,www.ftccollege.edu,28.57316,-81.196091,NULL,NULL
University of Florida,Gainesville,FL,32611,www.ufl.edu/,29.649428,-82.339958,0.4754,1272
Everest University-Pompano Beach,Pompano Beach,FL,33062,www.everest.edu/campus/pompano_beach,26.234119,-80.103598,NULL,NULL
Fort Pierce Beauty Academy,Fort Pierce,FL,34982-6333,fpbeauty.com,27.412426,-80.324698,NULL,NULL
Full Sail University,Winter Park,FL,32792-7429,www.fullsail.edu,28.596546,-81.301286,NULL,NULL
George Stone Technical Center,Pensacola,FL,32526-8922,www.georgestonecenter.com,30.488083,-87.295105,NULL,NULL
George T Baker Aviation Technical College,Miami,FL,33142,www.bakeraviation.edu,25.804092,-80.263591,NULL,NULL
Gulf Coast State College,Panama City,FL,32401,www.gulfcoast.edu/default.htm,30.186104,-85.727249,NULL,NULL
Key College,Dania Beach,FL,33004-3046,www.keycollege.edu,26.052841,-80.139871,1,NULL
Hillsborough Community College,Tampa,FL,33606-3584,www.hccfl.edu,27.934513,-82.456919,NULL,NULL
Hobe Sound Bible College,Hobe Sound,FL,33455-1065,www.hsbc.edu,27.066473,-80.132413,NULL,NULL
Hollywood Institute of Beauty Careers,Hollywood,FL,33023,www.hi.edu,26.006778,-80.207528,NULL,NULL
Cortiva Institute-Florida,Pinellas Park,FL,33781,www.cortiva.com,27.839722,-82.688959,NULL,NULL
Indian River State College,Fort Pierce,FL,34981-5596,www.irsc.edu,27.423121,-80.35785,NULL,NULL
Sanford-Brown College-Tampa,Tampa,FL,33307,www.sanfordbrown.edu/Tampa,27.952884,-82.504433,NULL,NULL
International Academy,South Daytona,FL,32119,www.intl-academy.com,29.162159,-80.997811,NULL,NULL
AI Miami International University of Art and Design,Miami,FL,33132-1418,www.artinstitutes.edu/miami/,25.790008,-80.18839,NULL,NULL
ITT Technical Institute-Tampa,Tampa,FL,33634-7350,www.itt-tech.edu,27.982417,-82.547618,0.7254,NULL
Jacksonville University,Jacksonville,FL,32211-3394,www.jacksonville.edu,30.350349,-81.60706,0.5351,NULL
Jones College-Jacksonville,Jacksonville,FL,32211,www.jones.edu,30.328002,-81.610068,NULL,NULL
Keiser University-Ft Lauderdale,Fort Lauderdale,FL,33309,www.keiseruniversity.edu,26.185869,-80.163959,NULL,NULL
Heritage Institute-Ft Myers,Fort Myers,FL,33912,www.heritagecollege.edu,26.540884,-81.842475,NULL,NULL
La Belle Beauty School,Hialeah,FL,33012,labellebeauty.net,25.86696,-80.312721,NULL,NULL
Florida Gateway College,Lake City,FL,32025-2007,https://www.fgc.edu/,30.174307,-82.569667,NULL,NULL
Lake Technical College,Eustis,FL,32726,www.laketech.org,28.833446,-81.690874,NULL,NULL
Lake-Sumter State College,Leesburg,FL,34788-8751,www.lssc.edu,28.830237,-81.797731,NULL,NULL
Fort Myers Technical College,Fort Myers,FL,33916-2204,www.fortmyerstech.edu,26.64855,-81.832974,NULL,NULL
Lively Technical Center,Tallahassee,FL,32304-2895,www.livelytech.com,30.448534,-84.339057,NULL,NULL
Lindsey Hopkins Technical College,Miami,FL,33127,lindsey.dadeschools.net,25.794676,-80.208154,NULL,NULL
Loraines Academy & Spa,Saint Petersburg,FL,33710,www.lorainesacademy.edu/,27.781266,-82.711151,NULL,NULL
Luther Rice College & Seminary,Lithonia,GA,30038-9869,www.lutherrice.edu,33.697984,-84.123648,1,NULL
State College of Florida-Manatee-Sarasota,Bradenton,FL,34207,www.scf.edu,27.436066,-82.591739,NULL,NULL
Manatee Technical College,Bradenton,FL,34203,manateetech.edu/,27.446201,-82.480472,NULL,NULL
Traviss Technical College,Lakeland,FL,33803,www.traviss.edu,27.99579,-81.893503,NULL,NULL
Merryfield School of Pet Grooming,Oakland Park,FL,33334-4925,www.merryfieldschool.com,26.19042,-80.129971,NULL,NULL
Trinity International University-Florida,Davie,FL,33324,florida.tiu.edu,26.099656,-80.257156,NULL,1042
Miami Lakes Educational Center and Technical College,Miami Lakes,FL,33014,miamilakes.edu,25.916128,-80.29513,NULL,NULL
Miami Dade College,Miami,FL,33132-2204,www.mdc.edu/main/,25.777717,-80.190856,NULL,NULL
University of Miami,Coral Gables,FL,33146,www.miami.edu/,25.720406,-80.27645,0.3779,1319
Orange Technical College-Mid Florida Campus,Orlando,FL,32809,www.orangetechcollege.net,28.471695,-81.415996,NULL,NULL
Beauty Schools of America-Miami,Miami,FL,33144-4700,www.bsa.edu,25.760695,-80.303842,NULL,NULL
Remington College-Tampa Campus,Tampa,FL,33619,www.remingtoncollege.edu/tampa-technical-school-overview,27.983466,-82.385976,NULL,NULL
Academy of Palm Beach,Lake Worth,FL,33463-2113,www.apb.edu,26.631072,-80.113108,NULL,NULL
Lincoln College of Technology-West Palm Beach,West Palm Beach,FL,33407,www.lincolnedu.com/campus/west-palm-beach-fl,26.758227,-80.094805,NULL,NULL
Paul Mitchell the School-Jacksonville,Jacksonville,FL,32246,paulmitchell.edu/jacksonville,30.260902,-81.527289,NULL,NULL
North Florida Community College,Madison,FL,32340,www.nfcc.edu,30.473871,-83.421873,NULL,NULL
University of North Florida,Jacksonville,FL,32224-7699,www.unf.edu,30.270917,-81.507853,0.566,1140
Nova Southeastern University,Fort Lauderdale,FL,33314-7796,www.nova.edu,26.079337,-80.24248,0.5924,1130
Northwest Florida State College,Niceville,FL,32578-1295,www.nwfsc.edu/,30.537148,-86.475467,NULL,NULL
Everest University-North Orlando,Orlando,FL,32810,www.everest.edu/campus/north_orlando,28.610884,-81.387438,NULL,NULL
Orange Technical College-Orlando Campus,Orlando,FL,32801-1197,www.orangetechcollege.net/orlando/Pages/default.aspx,28.550422,-81.383783,NULL,NULL
Palm Beach Atlantic University,West Palm Beach,FL,33401,www.pba.edu,26.704629,-80.049758,0.9289,1065
Palm Beach State College,Lake Worth,FL,33461-4796,www.palmbeachstate.edu/,26.613214,-80.087104,NULL,NULL
Pasco-Hernando State College,New Port Richey,FL,34654-5199,www.phsc.edu,28.2751,-82.646727,NULL,NULL
Pensacola State College,Pensacola,FL,32504-8998,www.pensacolastate.edu,30.480779,-87.200622,NULL,NULL
Pinellas Technical College-Clearwater,Clearwater,FL,33760-2140,www.myptc.edu,27.911922,-82.719064,NULL,NULL
Polk State College,Winter Haven,FL,33881-4299,www.polk.edu,28.030775,-81.712932,NULL,NULL
Radford M Locklin Technical Center,Milton,FL,32570-8188,www.locklintech.com,30.646762,-87.100567,NULL,NULL
Saint Vincent de Paul Regional Seminary,Boynton Beach,FL,33436-4899,www.svdp.edu,26.51582,-80.125707,NULL,NULL
Ridge Technical College,Winter Haven,FL,33881-9518,www.ridge.edu/,28.076632,-81.654463,NULL,NULL
Ringling College of Art and Design,Sarasota,FL,34234-5895,www.ringling.edu,27.35963,-82.548598,0.7654,NULL
Toni & Guy Hairdressing Academy-Jacksonville,Jacksonville,FL,32256,toniguy.edu,30.2196,-81.586741,NULL,NULL
Robert Morgan Educational Center and Technical College,Miami,FL,33177-2407,rmec.dadeschools.net,25.599133,-80.390354,NULL,NULL
Rollins College,Winter Park,FL,32789-4499,www.rollins.edu,28.591992,-81.348716,0.6038,NULL
First Coast Technical College,Saint Augustine,FL,32084-1919,fctc.edu/,29.924377,-81.345829,NULL,NULL
Saint Leo University,Saint Leo,FL,33574-6665,www.saintleo.edu,28.336776,-82.257287,0.7252,NULL
St Petersburg College,Clearwater,FL,33760-2822,www.spcollege.edu,27.9026,-82.717321,NULL,NULL
Pinellas Technical College-St. Petersburg,Saint Petersburg,FL,33711-2209,www.myptc.edu,27.761183,-82.681534,NULL,NULL
Santa Fe College,Gainesville,FL,32606-6210,www.sfcollege.edu,29.680698,-82.433958,NULL,NULL
Suncoast Technical College,Sarasota,FL,34233-1798,suncoast.edu,27.285486,-82.500827,NULL,NULL
Argosy University-Sarasota,Sarasota,FL,34235,www.argosy.edu/sarasota/,27.351394,-82.465363,NULL,NULL
Seminole State College of Florida,Sanford,FL,32773-6199,https://www.seminolestate.edu/,28.74475,-81.305606,NULL,NULL
Sheridan Technical College,Hollywood,FL,33021,www.sheridantechnicalcollege.edu/,26.031736,-80.198024,NULL,NULL
Saint John Vianney College Seminary,Miami,FL,33165-3244,www.sjvcs.edu/,25.742579,-80.337411,1,NULL
Saint Johns River State College,Palatka,FL,32177,www.sjrstate.edu,29.647195,-81.681137,NULL,NULL
South Florida State College,Avon Park,FL,33825-9356,www.southflorida.edu,27.569553,-81.508387,NULL,NULL
University of South Florida-Main Campus,Tampa,FL,33620-9951,www.usf.edu,28.056647,-82.415876,0.4464,1167
St Thomas University,Miami Gardens,FL,33054-6459,www.stu.edu,25.920915,-80.256265,0.4892,924
Stetson University,DeLand,FL,32723,www.stetson.edu,29.036295,-81.301604,0.6347,NULL
Southeastern University,Lakeland,FL,33801-6034,www.seu.edu/,28.031864,-81.918997,0.4648,955
Bene's Career Academy,New Port Richey,FL,34652,https://www.benes.edu,28.261074,-82.72846,NULL,NULL
RIVEROAK Technical College,Live Oak,FL,32064,rtc.suwannee.k12.fl.us/,30.2839,-82.991356,NULL,NULL
Tallahassee Community College,Tallahassee,FL,32304-2895,https://www.tcc.fl.edu,30.445234,-84.341462,NULL,NULL
Talmudic College of Florida,Miami Beach,FL,33140-3854,www.talmudicu.edu,25.7949,-80.141334,NULL,NULL
Everest University-Tampa,Tampa,FL,33614,www.everest.edu/campus/tampa,27.996582,-82.497616,NULL,NULL
Everest University-Largo,Largo,FL,33770-2556,www.everest.edu/campus/largo,27.915296,-82.775886,NULL,NULL
The University of Tampa,Tampa,FL,33606-1490,www.ut.edu,27.947225,-82.465582,0.5074,1092
Taylor Technical Institute,Perry,FL,32348,taylortechnical.org,30.077954,-83.565783,NULL,NULL
Tom P Haney Technical Center,Panama City,FL,32405,www.bayschools.com/htc,30.203363,-85.646585,NULL,NULL
Trinity Baptist College,Jacksonville,FL,32221,www.tbc.edu,30.323755,-81.705655,0.8634,845
Trinity College of Florida,Trinity,FL,34655-4401,trinitycollege.edu,28.194222,-82.677065,0.7368,898
Fashion Focus Hair Academy,Sarasota,FL,34231-4813,www.fashionfocusacad.com,27.258911,-82.517388,NULL,NULL
Valencia College,Orlando,FL,32835,valenciacollege.edu,28.52092,-81.471181,NULL,NULL
Warner University,Lake Wales,FL,33859-8797,www.warner.edu,27.825751,-81.599972,0.512,879
Florida Panhandle Technical College,Chipley,FL,32428-1618,fptc.edu,30.77449,-85.553345,NULL,NULL
Webber International University,Babson Park,FL,33827-0096,www.webber.edu,27.838798,-81.532325,0.5264,902
Rasmussen College-Florida,Ocala,FL,34474-6226,rasmussen.edu,29.14081,-82.19842,NULL,NULL
The University of West Florida,Pensacola,FL,32514-5750,uwf.edu,30.542855,-87.218125,0.4154,1053
Orange Technical College-Westside Campus,Winter Garden,FL,34787-3733,https://www.orangetechcollege.net/Pages/default.aspx,28.559574,-81.571532,NULL,NULL
William T McFatter Technical College,Davie,FL,33317,www.mcfattertechnicalcollege.edu/,26.085022,-80.232201,NULL,NULL
Orange Technical College-Winter Park Campus,Winter Park,FL,32789-3049,www.orangetechcollege.net/winterpark/Pages/default.aspx,28.604386,-81.36174,NULL,NULL
Withlacoochee Technical College,Inverness,FL,34450-4696,www.wtcollege.org,28.834861,-82.345563,NULL,NULL
Abraham Baldwin Agricultural College,Tifton,GA,31793-2601,www.abac.edu,31.481889,-83.528281,0.7731,933
Agnes Scott College,Decatur,GA,30030-3770,www.agnesscott.edu,33.769996,-84.29563,0.6174,NULL
Interactive College of Technology-Chamblee,Chamblee,GA,30341,www.ict.edu,33.889452,-84.301964,NULL,NULL
Interactive College of Technology-Morrow,Morrow,GA,30260,ict.edu,33.57233,-84.336098,NULL,NULL
Albany Technical College,Albany,GA,31701,www.albanytech.edu,31.55434,-84.174284,NULL,NULL
Darton State College,Albany,GA,31707-3098,www.darton.edu,31.583594,-84.212087,NULL,NULL
Albany State University,Albany,GA,31705,https://www.asurams.edu/,31.571395,-84.14306,0.6371,883
Andrew College,Cuthbert,GA,39840-5550,www.andrewcollege.edu,31.772321,-84.795021,0.9925,NULL
Armstrong State University,Savannah,GA,31419-1997,www.armstrong.edu,31.978109,-81.160409,0.7395,997
The Art Institute of Atlanta,Atlanta,GA,30328-1635,www.artinstitutes.edu/atlanta,33.937445,-84.354867,NULL,NULL
Georgia Career Institute,Conyers,GA,30094,gci.edu/,33.64337,-84.018361,NULL,NULL
Atlanta Technical College,Atlanta,GA,30310-4446,www.atlantatech.edu/,33.712009,-84.404995,NULL,NULL
Point University,West Point,GA,31833,point.edu,32.879715,-85.185134,0.4907,910
Atlanta Metropolitan State College,Atlanta,GA,30310-4448,www.atlm.edu,33.70893,-84.404659,NULL,NULL
Atlanta's John Marshall Law School,Atlanta,GA,30309,www.johnmarshall.edu,33.793388,-84.38777,NULL,NULL
Atlanta School of Massage,Atlanta,GA,30338,www.atlantaschoolofmassage.com,33.927829,-84.29844,NULL,NULL
Clark Atlanta University,Atlanta,GA,30314-4391,www.cau.edu,33.748772,-84.412818,0.512,850
Augusta Technical College,Augusta,GA,30906,www.augustatech.edu,33.418992,-82.048439,NULL,NULL
Bainbridge State College,Bainbridge,GA,39819,www.bainbridge.edu/,30.899474,-84.535049,NULL,NULL
Bauder College,Atlanta,GA,30313,www.bauder.edu/,33.767494,-84.399724,NULL,NULL
Beauty College of America,Forest Park,GA,30297-1443,www.beautycollegeofamca.com,33.618673,-84.351999,NULL,NULL
Berry College,Mount Berry,GA,30149,www.berry.edu,34.289254,-85.189077,0.5537,1179
Beulah Heights University,Atlanta,GA,30316,www.beulah.edu,33.737022,-84.358086,NULL,NULL
Brenau University,Gainesville,GA,30501-3668,www.brenau.edu,34.303117,-83.821513,0.6562,990
Brewton-Parker College,Mount Vernon,GA,30445,www.bpc.edu,32.185718,-82.586136,NULL,NULL
Brown College of Court Reporting,Atlanta,GA,30309,www.bccr.edu,33.784536,-84.389224,0.7407,NULL
College of Coastal Georgia,Brunswick,GA,31520-3644,www.ccga.edu,31.182741,-81.486086,0.9499,935
West Georgia Technical College,Waco,GA,30182,www.westgatech.edu,33.691657,-85.183666,NULL,NULL
Carver Bible College,Atlanta,GA,30331,www.carver.edu,33.7236,-84.515091,NULL,NULL
Clayton  State University,Morrow,GA,30260-0285,www.clayton.edu,33.594079,-84.328174,0.3857,NULL
Columbia Theological Seminary,Decatur,GA,30030-4118,WWW.CTSNET.EDU,33.764108,-84.282978,NULL,NULL
Columbus Technical College,Columbus,GA,31904-6572,www.columbustech.edu/,32.505697,-84.979348,NULL,NULL
Columbus State University,Columbus,GA,31907-5645,www.columbusstate.edu,32.501556,-84.940796,0.5569,961
Georgia Northwestern Technical College,Rome,GA,30161,www.gntc.edu,34.224673,-85.171361,NULL,NULL
Covenant College,Lookout Mountain,GA,30750-4164,www.covenant.edu,34.963327,-85.37496,0.9398,1189
Dalton State College,Dalton,GA,30720-3797,https://www.daltonstate.edu/index.cms,34.77496,-85.00289,NULL,NULL
Pro Way Hair School,Stone Mountain,GA,30083-3254,www.prowayhairschool.com,33.801802,-84.205183,NULL,NULL
South University-Savannah,Savannah,GA,31406,"www.southuniversity.edu/savannah#location=Savannah,%20GA",31.999571,-81.105435,NULL,NULL
East Georgia State College,Swainsboro,GA,30401,www.ega.edu,32.59577,-82.308486,NULL,NULL
Emmanuel College,Franklin Springs,GA,30639,www.ec.edu,34.282617,-83.146825,0.3388,930
Emory University,Atlanta,GA,30322,www.emory.edu,33.798836,-84.325782,0.2367,1366
Georgia Highlands College,Rome,GA,30161-3897,www.highlands.edu,34.169791,-85.207356,NULL,NULL
Fort Valley State University,Fort Valley,GA,31030-4313,www.fvsu.edu,32.538163,-83.895548,0.2051,865
Grady Health System Professional Schools,Atlanta,GA,30303-3050,www.gradyhealthsystem.org,33.752007,-84.382393,NULL,NULL
Georgia Institute of Technology-Main Campus,Atlanta,GA,30332-0530,www.gatech.edu,33.773732,-84.396019,0.3217,1403
Georgia Southwestern State University,Americus,GA,31709-4693,https://gsw.edu/,32.058198,-84.217755,0.7164,967
Georgia College and State University,Milledgeville,GA,31061,www.gcsu.edu/,33.082787,-83.231962,0.7566,1143
Georgia Southern University,Statesboro,GA,30460-8126,www.georgiasouthern.edu,32.427756,-81.782201,0.6023,1089
Georgia State University,Atlanta,GA,30303-3083,www.gsu.edu,33.7527,-84.38667,0.5665,1056
University of Georgia,Athens,GA,30602,www.uga.edu,33.956428,-83.374049,0.5288,1252
Gordon State College,Barnesville,GA,30204,www.gordonstate.edu,33.045208,-84.152548,0.5673,851
Southern Crescent Technical College,Griffin,GA,30223-2042,www.sctech.edu,33.255438,-84.291662,NULL,NULL
Gupton Jones College of Funeral Service,Decatur,GA,30035-4022,WWW.GUPTON-JONES.EDU,33.710441,-84.179602,NULL,NULL
Gwinnett College-Lilburn,Lilburn,GA,30047-3447,www.gwinnettcollege.edu,33.901271,-84.121874,NULL,NULL
Gwinnett Technical College,Lawrenceville,GA,30043-5702,www.GwinnettTech.edu,33.962763,-84.066224,NULL,NULL
Interdenominational Theological Center,Atlanta,GA,30314-4143,www.itc.edu,33.754904,-84.410337,NULL,NULL
LaGrange College,Lagrange,GA,30240-2999,www.lagrange.edu,33.039713,-85.041394,0.5725,1012
Lanier Technical College,Oakwood,GA,30566,www.laniertech.edu,34.236386,-83.864559,NULL,NULL
Life University,Marietta,GA,30060,www.life.edu,33.932104,-84.514156,0.588,NULL
Chattahoochee Technical College,Marietta,GA,30060,www.chattahoocheetech.edu,33.929093,-84.552492,NULL,NULL
Herzing University-Atlanta,Atlanta,GA,30326,www.herzing.edu,33.846627,-84.362635,0.8538,NULL
Mercer University,Macon,GA,31207,www.mercer.edu,32.831709,-83.650114,0.6688,1217
Morehouse College,Atlanta,GA,30314,www.morehouse.edu,33.74793,-84.415156,0.7596,978
Morehouse School of Medicine,Atlanta,GA,30310,www.msm.edu,33.742549,-84.411958,NULL,NULL
North Georgia Technical College,Clarkesville,GA,30523,https://northgatech.edu,34.63853,-83.529592,NULL,NULL
Oglethorpe University,Atlanta,GA,30319-2797,www.oglethorpe.edu,33.875939,-84.334756,0.7847,1140
Paine College,Augusta,GA,30901-3182,www.paine.edu,33.469259,-81.991199,0.3063,749
Piedmont College,Demorest,GA,30535-0010,www.piedmont.edu,34.56663,-83.543216,0.57,995
Portfolio Center,Atlanta,GA,30309,www.portfoliocenter.edu,33.811882,-84.39589,1,NULL
Reinhardt University,Waleska,GA,30183-2981,www.reinhardt.edu,34.318874,-84.554657,0.9076,953
Savannah Technical College,Savannah,GA,31405-5594,www.savannahtech.edu,32.023211,-81.114753,NULL,NULL
Savannah College of Art and Design,Savannah,GA,31402-3146,www.scad.edu,32.072966,-81.093905,0.6991,1064
Savannah State University,Savannah,GA,31404-5310,www.savannahstate.edu/,32.024781,-81.063377,0.8264,847
Shorter University,Rome,GA,30165,su.shorter.edu,34.258192,-85.196213,0.6289,969
South Georgia Technical College,Americus,GA,31709,www.southgatech.edu,32.116663,-84.188321,NULL,NULL
The Creative Circus,Atlanta,GA,30324,www.creativecircus.edu,33.813156,-84.361989,NULL,NULL
Spelman College,Atlanta,GA,30314-4399,www.spelman.edu,33.74519,-84.410118,0.4833,1015
Thomas University,Thomasville,GA,31792,www.thomasu.edu,30.813954,-83.981478,0.4321,NULL
Toccoa Falls College,Toccoa Falls,GA,30598,www.tfc.edu,34.59554,-83.353462,0.4545,997
Truett McConnell University,Cleveland,GA,30528,https://truett.edu,34.594437,-83.745972,0.9113,938
Wiregrass Georgia Technical College,Valdosta,GA,31602-0929,www.wiregrass.edu,30.889221,-83.35381,NULL,NULL
Valdosta State University,Valdosta,GA,31698,www.valdosta.edu,30.849236,-83.289925,0.5043,993
Wesleyan College,Macon,GA,31210-4462,www.wesleyancollege.edu,32.874648,-83.717186,NULL,NULL
University of West Georgia,Carrollton,GA,30118-0001,www.westga.edu,33.574421,-85.099007,0.5688,945
Young Harris College,Young Harris,GA,30582,www.yhc.edu,34.93316,-83.847765,0.522,974
Chaminade University of Honolulu,Honolulu,HI,96816-1578,www.chaminade.edu,21.290274,-157.807642,0.8203,966
University of Hawaii at Hilo,Hilo,HI,96720-4091,www.hilo.hawaii.edu,19.701854,-155.081329,0.7125,926
University of Hawaii at Manoa,Honolulu,HI,96822-2217,www.manoa.hawaii.edu,21.292648,-157.816607,0.8142,1067
Hawaii Institute of Hair Design,Honolulu,HI,96817-5195,www.hihdhawaii.net,21.313505,-157.861958,NULL,NULL
Hawaii Pacific University,Honolulu,HI,96813,www.hpu.edu,21.31027,-157.859401,0.913,NULL
Honolulu Community College,Honolulu,HI,96817-4505,www.honolulu.hawaii.edu,21.319946,-157.87488,NULL,NULL
Kapiolani Community College,Honolulu,HI,96816-4421,https://www.kapiolani.hawaii.edu,21.271357,-157.800413,NULL,NULL
Kauai Community College,Lihue,HI,96766-9500,www.kauai.hawaii.edu,21.969509,-159.395966,NULL,NULL
Leeward Community College,Pearl City,HI,96782-3366,www.leeward.hawaii.edu,21.392802,-157.985099,NULL,NULL
University of Hawaii Maui College,Kahului,HI,96732-1617,maui.hawaii.edu,20.890561,-156.479854,NULL,NULL
Med-Assist School of Hawaii Inc,Honolulu,HI,96813,www.mash.edu/,21.30557,-157.861531,NULL,NULL
World Medicine Institute,Honolulu,HI,96821,www.wmi.edu,21.296439,-157.754719,NULL,NULL
Travel Institute of the Pacific,Honolulu,HI,96814,WWW.TIPHAWAII.COM,21.298959,-157.841529,NULL,NULL
University of Hawaii-West Oahu,Kapolei,HI,96707-4507,www.uhwo.hawaii.edu,21.354897,-158.061825,0.7016,NULL
Windward Community College,Kaneohe,HI,96744-3528,https://www.windward.hawaii.edu,21.40922,-157.813213,NULL,NULL
Carrington College-Boise,Boise,ID,83704-8742,www.carrington.edu,43.615935,-116.260571,1,NULL
Boise Bible College,Boise,ID,83714-1220,www.boisebible.edu,43.657437,-116.290607,0.9815,1045
Boise State University,Boise,ID,83725,www.boisestate.edu,43.604403,-116.205789,0.7957,1046
Eastern Idaho Technical College,Idaho Falls,ID,83404-5788,www.eitc.edu,43.4818,-111.984645,NULL,NULL
Idaho State University,Pocatello,ID,83209,www.isu.edu/,42.864108,-112.429084,NULL,NULL
University of Idaho,Moscow,ID,83844-2282,www.uidaho.edu,46.726894,-117.024296,0.7205,1061
The College of Idaho,Caldwell,ID,83605-4432,www.collegeofidaho.edu,43.652653,-116.676838,0.9037,NULL
Lewis-Clark State College,Lewiston,ID,83501-2698,www.lcsc.edu,46.410034,-117.026371,0.9888,939
ITT Technical Institute-Boise,Boise,ID,83713-1529,www.itt-tech.edu,43.660091,-116.335509,0.8381,NULL
Aveda Institute-Twin Falls,Twin Falls,ID,83301,www.avedaiaho.com,42.593695,-114.461693,NULL,NULL
Mr Leon's School of Hair Design-Moscow,Moscow,ID,83843,mrleons.com,46.729394,-117.001352,NULL,NULL
North Idaho College,Coeur d'Alene,ID,83814-2199,www.nic.edu/,47.676416,-116.798399,NULL,NULL
Northwest Nazarene University,Nampa,ID,83686-5897,www.nnu.edu,43.563181,-116.564792,0.5626,1056
The School of Hairstyling,Chubbuck,ID,83202,theschoolofhairstyling.com/,42.920006,-112.465046,NULL,NULL
Brigham Young University-Idaho,Rexburg,ID,83460-1690,www.byui.edu,43.815384,-111.784728,0.9959,1040
College of Southern Idaho,Twin Falls,ID,83301,www.csi.edu,42.58148,-114.474373,NULL,NULL
Adler University,Chicago,IL,60602,www.adler.edu,41.88232,-87.628651,NULL,NULL
American Academy of Art,Chicago,IL,60604-4302,www.aaart.edu,41.877824,-87.624396,NULL,NULL
School of the Art Institute of Chicago,Chicago,IL,60603,www.saic.edu,41.879646,-87.621411,0.6648,1155
Augustana College,Rock Island,IL,61201-2296,www.augustana.edu,41.500326,-90.552402,0.4934,NULL
Aurora University,Aurora,IL,60506-4892,aurora.edu,41.754465,-88.349469,0.7724,990
Tricoci University of Beauty Culture-Urbana,Urbana,IL,61801,www.tricociuniversity.edu,40.117722,-88.205839,NULL,NULL
Southwestern Illinois College,Belleville,IL,62221-5899,www.swic.edu,38.516406,-89.924466,NULL,NULL
Bethany Theological Seminary,Richmond,IN,47374-4019,www.bethanyseminary.edu,39.8265,-84.9099,NULL,NULL
Black Hawk College,Moline,IL,61265-5899,www.bhc.edu,41.475983,-90.449497,NULL,NULL
Blackburn College,Carlinville,IL,62626,www.blackburn.edu,39.288298,-89.872248,0.5547,1005
Blessing Rieman College of Nursing and Health Sciences,Quincy,IL,62305-7005,www.brcn.edu,39.935896,-91.398548,NULL,NULL
Blessing Hospital School of Radiologic Technology,Quincy,IL,62305-7005,www.blessinghealthsystem.org,39.936595,-91.398901,NULL,NULL
Bradley University,Peoria,IL,61625-0001,www.bradley.edu,40.697605,-89.61462,0.6568,1163
Paul Mitchell the School-Bradley,Bourbonnais,IL,60914,paulmitchell.edu/bradley,41.17436,-87.848231,NULL,NULL
Cameo Beauty Academy,Oak Lawn,IL,60453,www.cameobeautyacademy.com,41.716251,-87.740865,NULL,NULL
Cannella School of Hair Design-Villa Park,Villa Park,IL,60181,Cannellabeautyschools.com,41.901717,-87.939652,NULL,NULL
Cannella School of Hair Design-Chicago,Chicago,IL,60617-4303,cannellabeautyschools.com,41.731437,-87.551315,NULL,NULL
Cannella School of Hair Design-Chicago,Chicago,IL,60632-2549,cannellabeautyschools.com,41.815699,-87.701239,NULL,NULL
Cannella School of Hair Design-Elgin,Elgin,IL,60120,cannellabeautyschools.com,42.036421,-88.286781,NULL,NULL
Empire Beauty School-Hanover Park,Hanover Park,IL,60133-5421,www.empire.edu,41.970117,-88.114475,NULL,NULL
Capri Beauty College,Oak Forest,IL,60452,capri.edu,41.603863,-87.771567,NULL,NULL
Carl Sandburg College,Galesburg,IL,61401,www.sandburg.edu,40.98128,-90.408203,NULL,NULL
Catholic Theological Union at Chicago,Chicago,IL,60615-5698,www.ctu.edu,41.798059,-87.585772,NULL,NULL
La James International College-East Moline,East Moline,IL,61244,www.ljic.edu,41.490281,-90.451978,NULL,NULL
Midwestern University-Downers Grove,Downers Grove,IL,60515-5514,www.midwestern.edu,41.828376,-88.000989,NULL,NULL
The Chicago School of Professional Psychology at Chicago,Chicago,IL,60654,www.thechicagoschool.edu,41.887903,-87.633933,NULL,NULL
Chicago State University,Chicago,IL,60628-1598,www.csu.edu,41.718813,-87.610344,0.2118,875
Chicago Theological Seminary,Chicago,IL,60637,https://www.ctschicago.edu,41.786056,-87.591249,NULL,NULL
University of Chicago,Chicago,IL,60637,WWW.UCHICAGO.EDU,41.78917,-87.601196,0.0838,1506
City Colleges of Chicago-Kennedy-King College,Chicago,IL,60621-2709,www.ccc.edu/colleges/kennedy/pages/default.aspx,41.780253,-87.643425,NULL,NULL
City Colleges of Chicago-Malcolm X College,Chicago,IL,60612-3197,www.ccc.edu/colleges/malcolm-x/pages/default.aspx,41.876942,-87.674126,NULL,NULL
City Colleges of Chicago-Olive-Harvey College,Chicago,IL,60628-1696,ccc.edu/colleges/olive-harvey/pages/default.aspx,41.709997,-87.589249,NULL,NULL
City Colleges of Chicago-Harry S Truman College,Chicago,IL,60640-6063,ccc.edu/colleges/truman/pages/default.aspx,41.964502,-87.659107,NULL,NULL
City Colleges of Chicago-Richard J Daley College,Chicago,IL,60652-1299,ccc.edu/colleges/daley/pages/default.aspx,41.755955,-87.723981,NULL,NULL
City Colleges of Chicago-Harold Washington College,Chicago,IL,60601-2449,www.ccc.edu/colleges/washington/Pages/default.aspx,41.886067,-87.626596,NULL,NULL
City Colleges of Chicago-Wilbur Wright College,Chicago,IL,60634-1500,ccc.edu/colleges/wright/pages/default.aspx,41.958774,-87.787868,NULL,NULL
Columbia College Chicago,Chicago,IL,60605-1996,www.colum.edu,41.873589,-87.624554,0.8806,NULL
Concordia University-Chicago,River Forest,IL,60305-1499,www.cuchicago.edu,41.898574,-87.810009,0.5031,1047
Le Cordon Bleu College of Culinary Arts-Chicago,Chicago,IL,60610,www.chefs.edu/chicago,41.898323,-87.63744,NULL,NULL
Coyne College,Chicago,IL,60602-3304,www.coynecollege.edu,41.887808,-87.649026,NULL,NULL
Danville Area Community College,Danville,IL,61832-5118,www.dacc.edu,40.128466,-87.586347,NULL,NULL
Tricoci University of Beauty Culture-Danville,Danville,IL,61832,www.tricociuniversity.edu,40.075994,-87.634654,NULL,NULL
